school_id,school_name,num_sitters,average_300,grade,region_name,council_name,num_sitters_girls,num_sitters_boys,ratio_sitters_girls_boys,pct_passed,approx_marks_SD_300,WARD,SCHOOL OWNERSHIP,SCHOOL REG. NUMBER,LATITUDE,LONGITUDE,TOTAL BOYS,TOTAL GIRLS,PTR,PQTR,TOTAL STUDENTS,RATIO GIRLS-BOYS,PBR_average,CG,CG_per_student,approx_ages_SD,approx_ages_mean,ages_median
PS0101114,ALBEHIJE,21,255.0476,A,Arusha,Arusha,10,11,0.9090909090909092,1.0,17.539225556066494,Kiranyi,Non-Government,EM.13504,-3.3620171,36.6856885,59,62,9,9,121,1.0508474576271187,0.955658914728682,,,2.449294547652954,9.867768595041325,10.0
PS0101128,ARUSHA VICTORY,13,282.0,A,Arusha,Arusha,6,7,0.8571428571428571,1.0,0.0,Kiranyi,Non-Government,EM.14963,-3.3579834,36.6780255,86,95,18,36,181,1.1046511627906976,2.354578206031694,,,2.2214204808451217,8.480662983425415,8.0
PS0101116,ASSALAF ISLAMIC,40,224.4,B,Arusha,Arusha,22,18,1.2222222222222223,1.0,31.32680499089398,Mateves,Non-Government,EM.14964,-3.385133,36.54941474,172,213,28,28,385,1.2383720930232558,0.9721826836521984,,,1.9619865260373648,8.761038961038961,8.0
PS0101143,DEANERY,26,238.9615,B,Arusha,Arusha,12,14,0.8571428571428571,1.0,29.519332560586207,Mateves,Non-Government,EM.16671,-3.3773035,36.5862759,223,242,24,24,465,1.0852017937219731,4.203255813953488,,,2.1700789587053837,8.531182795698925,8.0
PS0101135,DINKA,13,231.2308,B,Arusha,Arusha,4,9,0.4444444444444444,1.0,37.38197402824683,Mlangarini,Non-Government,EM.15916,-3.4506519,36.7924085,61,42,7,7,103,0.6885245901639344,1.0934982519568983,,,2.312718363049979,8.970873786407767,9.0
PS0101123,EBENEZER,8,197.125,B,Arusha,Arusha,4,4,1.0,1.0,25.98076211353316,Sokoni II,Non-Government,EM.14754,-3.9392741,36.360456,33,46,10,11,79,1.393939393939394,0.946474713916574,,,2.3196699012076736,8.683544303797468,8.0
PS0101131,ENGILANG'ET,20,206.0,B,Arusha,Arusha,10,10,1.0,1.0,18.0,Moivo,Non-Government,EM.15190,-3.3472802,36.6992602,87,75,14,27,162,0.8620689655172413,2.2906976744186047,,,2.331936677830286,9.98148148148148,10.0
PS0101121,GOODWILL,27,236.5926,B,Arusha,Arusha,13,14,0.9285714285714286,1.0,29.690013701247203,Moivo,Non-Government,EM.14966,-3.3551844,36.6921826,115,100,17,18,215,0.8695652173913043,2.1331587764880298,,,1.9653790934755688,8.376744186046512,8.0
PS0101129,GRACIOUS,37,271.027,A,Arusha,Arusha,15,22,0.6818181818181818,1.0,13.510928806867842,Kiranyi,Non-Government,EM.15917,-3.347566,36.6696166,132,119,25,25,251,0.9015151515151516,1.0242953193152569,,,2.295138866835045,8.705179282868526,8.0
PS0101012,GREEN ACRES,107,257.5234,A,Arusha,Arusha,55,52,1.0576923076923077,1.0,24.14765348689288,Kiutu,Non-Government,EM.9579,-3.3624253,36.7056632,440,453,31,31,893,1.0295454545454543,0.9849925503086008,,,2.292020756665683,9.499440089585669,10.0
PS0101158,GREEN PASTURES,19,234.7895,B,Arusha,Arusha,11,8,1.375,1.0,27.773563777004675,Kiutu,Non-Government,EM.17505,-3.346742,36.7242141,199,223,25,25,422,1.120603015075377,1.1273504603299356,,,1.918285598047784,8.983412322274882,9.0
PS0101136,IKIRWA,12,226.9167,B,Arusha,Arusha,4,8,0.5,1.0,22.267510275935408,Bangata,Non-Government,EM.15402,-3.3394526,36.7407011,81,70,14,22,151,0.8641975308641975,3.929254337393872,,,1.897972113814692,9.390728476821192,9.0
PS0101141,ILBORU LUTHERAN,30,232.7333,B,Arusha,Arusha,16,14,1.1428571428571428,1.0,32.68661805693578,Ilboru,Non-Government,EM.16990,-3.3497765,36.6864527,172,169,28,34,341,0.9825581395348836,3.4826955602537004,,,2.147825091031968,8.703812316715542,9.0
PS0101137,ISLONG,70,280.7286,A,Arusha,Arusha,32,38,0.8421052631578947,1.0,7.090296797276499,Kimnyaki,Non-Government,EM.15918,-3.19213679,36.382345,399,390,26,26,789,0.9774436090225564,1.9938117050907749,,,1.9805721553811104,9.185044359949304,9.0
PS0101156,JOBREAS,12,215.0,B,Arusha,Arusha,5,7,0.7142857142857143,1.0,22.267510275935408,Olturoto,Non-Government,EM.17449,-3.3437167,36.6811666,83,88,21,21,171,1.0602409638554218,1.3711769423852338,,,1.8085971256213056,7.853801169590644,8.0
PS0101167,JOSEPH,8,205.875,B,Arusha,Arusha,4,4,1.0,1.0,29.937548930022643,Laroi,Non-Government,EM.18410,-3.44019,36.65438,41,31,9,9,72,0.7560975609756098,1.535015117157974,,,2.3775165354931205,9.23611111111111,9.0
PS0101144,JOSHUA VISION,60,119.5,D,Arusha,Arusha,24,36,0.6666666666666666,0.3333333333333333,32.802438933713454,Oldonyosambu,Non-Government,EM.16991,-3.1876998,36.6591451,117,103,28,37,220,0.8803418803418803,2.000807873090482,,,2.484597178718487,9.436363636363636,9.0
PS0101140,KINGDOM,17,232.7647,B,Arusha,Arusha,14,3,4.666666666666667,1.0,35.877748016955664,Kiranyi,Non-Government,EM.16992,-3.3604433,36.6778,138,160,27,27,298,1.1594202898550725,9.050176180408736,,,2.049761560265856,8.409395973154362,8.0
PS0101029,KISONGO,87,161.4713,C,Arusha,Arusha,49,38,1.2894736842105263,0.9195402298850576,32.200324220493115,Kisongo,Government,EM.735,-3.369725,36.547065,338,357,58,58,695,1.0562130177514792,3.3812563620379805,,,2.4279423367280955,10.076258992805757,10.0
PS0101110,LASTING BLESS,14,221.0714,B,Arusha,Arusha,7,7,1.0,1.0,22.630665092988767,Kiranyi,Non-Government,EM.18159,-3.3625734,36.6674539,40,56,11,11,96,1.4,1.005813953488372,,,2.4523231615936933,9.083333333333334,9.0
PS0101118,LIKAMBA INTEGRITY,33,202.5758,B,Arusha,Arusha,18,15,1.2,1.0,39.350894314859566,Musa,Non-Government,EM.14568,-3.3374677,36.5597534,71,111,15,17,182,1.5633802816901408,5.176885130373503,,,2.6615931338020444,10.60989010989011,11.0
PS0101159,MAADILI,4,243.25,A,Arusha,Arusha,3,1,3.0,1.0,25.872508938060104,Mateves,Non-Government,EM.17548,-3.3833644,36.5864353,63,66,16,16,129,1.0476190476190477,2.828839055001846,,,2.1919761242694284,8.44186046511628,8.0
PS0101126,MAASAI JOY,20,270.05,A,Arusha,Arusha,7,13,0.5384615384615384,1.0,0.0,Olturumet,Non-Government,EM.14967,-3.2686734,36.6327869,104,89,19,19,193,0.8557692307692307,4.776605758582503,,,2.291596854902685,9.735751295336788,10.0
PS0101106,MARGRETH ENGLANDS BURKS,18,220.8889,B,Arusha,Arusha,9,9,1.0,1.0,22.267510275935404,Olturumet,Non-Government,EM.14968,-3.3022721,36.6375616,82,90,17,17,172,1.0975609756097562,1.0034932686702778,,,2.3049081123041533,9.674418604651162,10.0
PS0101150,MIALE,33,202.4242,B,Arusha,Arusha,15,18,0.8333333333333334,1.0,24.507864969489244,Ilboru,Non-Government,EM.17425,-3.3500632,36.3739811,124,105,18,46,229,0.8467741935483871,2.616642113016942,,,2.064518724112904,9.34934497816594,9.0
PS0101107,NEW LIFE,74,218.4189,B,Arusha,Arusha,43,31,1.3870967741935485,0.9864864864864864,36.75815527943581,Oloirien,Non-Government,EM.13031,-3.3436141,36.6469212,257,289,23,23,546,1.1245136186770428,1.7653525404229191,,,2.204851332818369,8.307692307692308,8.0
PS0101115,NEW VISION,32,267.6875,A,Arusha,Arusha,16,16,1.0,1.0,21.694758275239984,Olturumet,Non-Government,EM.13507,-3.3408047,36.6264302,148,139,15,15,287,0.9391891891891893,0.9236512250008952,,,2.102821375614472,9.195121951219512,9.0
PS0101068,NURU,14,229.6429,B,Arusha,Arusha,9,5,1.8,1.0,28.62965606905981,Ilboru,Non-Government,EM.13884,-3.3500612,36.3739801,92,92,20,20,184,1.0,4.4467290461476505,,,2.153154969632102,9.146739130434783,9.0
PS0101085,OLORIEN VALLEY,21,237.0,B,Arusha,Arusha,10,11,0.9090909090909092,1.0,28.166420117264146,Oloirien,Non-Government,EM.11083,-3.3222531,36.6331767,60,61,13,13,121,1.0166666666666666,1.12711771409277,,,2.013274707912081,9.71900826446281,10.0
PS0101155,PELICAN,11,211.6364,B,Arusha,Arusha,7,4,1.75,1.0,36.10603358383505,Kisongo,Non-Government,EM.17427,-3.389213,36.543736,54,59,14,14,113,1.0925925925925926,1.4141928749884685,,,1.9314754828678031,7.743362831858407,7.0
PS0101157,ROCKLAND,24,254.0,A,Arusha,Arusha,12,12,1.0,1.0,25.872508938060104,Olmotonyi,Non-Government,EM.17496,-3.3125455,36.64241,91,102,14,18,193,1.120879120879121,1.6279931093884583,,,2.467518323149501,9.33678756476684,9.0
PS0101147,SAIDE,6,163.0,C,Arusha,Arusha,4,2,2.0,0.8333333333333334,41.23105625617661,Olmotonyi,Non-Government,EM.15919,-3.3662546,33.6234615,37,32,8,14,69,0.8648648648648649,4.744186046511628,,,2.2365845476939623,9.46376811594203,10.0
PS0101160,SAMMENA,16,210.9375,B,Arusha,Arusha,5,11,0.4545454545454545,1.0,36.665849526287744,Nduruma,Non-Government,EM.17569,-3.7458033,36.7657087,95,86,20,20,181,0.9052631578947368,12.406976744186046,,,2.0365093539904127,9.30939226519337,9.0
PS0101138,SAMWA,28,244.6786,A,Arusha,Arusha,12,16,0.75,1.0,33.290451264711976,Laroi,Non-Government,EM.16672,-3.4029702,36.6994841,146,141,32,32,287,0.9657534246575342,2.0665617875056994,,,2.227977119048042,9.829268292682928,10.0
PS0101139,SEIA EBENEZER,12,157.5833,C,Arusha,Arusha,7,5,1.4,0.9166666666666666,33.166247903554,Kisongo,Non-Government,EM.16673,-3.36634156,36.7657873,41,35,10,10,76,0.8536585365853658,1.0,,,2.528610525789951,10.38157894736842,10.0
PS0101148,SHINING STAR,20,283.4,A,Arusha,Arusha,12,8,1.5,1.0,0.0,Moivo,Non-Government,EM.17380,-3.3605,36.6971,138,146,19,19,284,1.0579710144927537,8.047480620155039,,,2.127212315606396,8.31338028169014,8.0
PS0101112,SOTWA WILSON,9,254.6667,A,Arusha,Arusha,5,4,1.25,1.0,18.777613411509428,Moivo,Non-Government,EM.13885,-3.38768,36.7388631,40,26,8,8,66,0.65,8.378682170542636,,,2.061330086704809,9.530303030303031,9.5
PS0101134,ST AUGUSTINE,58,263.4483,A,Arusha,Arusha,31,27,1.148148148148148,1.0,20.60344827586207,Kiranyi,Non-Government,EM.15194,-3.7417673,36.4787644,246,269,18,25,515,1.0934959349593496,1.0,,,2.254267744816905,9.650485436893204,10.0
PS0101098,ST MAGRET,69,214.3768,B,Arusha,Arusha,41,28,1.4642857142857142,1.0,32.03863304764167,Kisongo,Non-Government,EM.11561,-3.3717041,36.5805175,310,303,38,38,613,0.9774193548387096,1.174074917435141,,,2.237198909148346,9.794453507340949,10.0
PS0101120,ST PAULO,8,206.375,B,Arusha,Arusha,5,3,1.6666666666666667,1.0,35.877558706662306,Kiutu,Non-Government,EM.14569,-3.179993,36.649904,55,49,12,13,104,0.8909090909090909,2.862209302325581,,,2.195320972340408,9.413461538461538,9.0
PS0101142,ST. PIUS,15,223.5333,B,Arusha,Arusha,9,6,1.5,1.0,34.30277766530803,Kiranyi,Non-Government,EM.16993,-3.3554453,36.6781483,84,120,15,23,204,1.4285714285714286,2.3247910358375474,,,1.831497455538076,8.441176470588236,8.5
PS0101103,TRUST ST PATRICK,66,255.8788,A,Arusha,Arusha,23,43,0.5348837209302325,1.0,25.03944460560228,Oloirien,Non-Government,EM.10888,-3.3541965,36.6522091,233,183,14,14,416,0.7854077253218884,0.7236070574609293,,,2.4810999704988648,9.447115384615383,10.0
PS0101096,TURKISH MAARIF,31,212.3226,B,Arusha,Arusha,19,12,1.5833333333333333,1.0,34.006765027533525,Olturumet,Non-Government,EM.12376,-3.3044506,36.6371205,88,110,14,14,198,1.25,1.601176304315839,,,2.3183083524367203,9.717171717171718,10.0
PS0101113,WILKABAA,31,235.2903,B,Arusha,Arusha,16,15,1.0666666666666669,1.0,29.10339403273724,Sokoni II,Non-Government,EM.13886,-3.357785,36.7179266,124,133,29,29,257,1.0725806451612905,13.543839285714284,,,1.924666391024845,9.875486381322958,10.0
PS0101151,WINNERS,21,219.9524,B,Arusha,Arusha,8,13,0.6153846153846154,1.0,33.472667971552355,Oljoro,Non-Government,EM.17412,-3.5563652,36.6400394,114,120,26,26,234,1.0526315789473684,9.08062015503876,,,2.015064892757795,7.871794871794871,8.0
PS0101109,YAKINI,77,244.0519,A,Arusha,Arusha,40,37,1.0810810810810811,1.0,32.73832721466236,Kisongo,Non-Government,EM.14311,-3.3874027,36.5539942,250,276,19,19,526,1.104,1.6001338132152083,,,2.4195158049941146,9.79657794676806,10.0
PS0102047,ANGELICO,44,251.9773,A,Arusha,Arusha CC,24,20,1.2,1.0,23.04525282321612,Sombetini,Non-Government,EM.10889,-3.3852664,36.6709666,194,219,30,30,413,1.1288659793814433,1.6400030310484337,,,2.4326682629605525,9.27360774818402,9.0
PS0102073,ARUSHA ALLIANCE,133,247.2632,A,Arusha,Arusha CC,77,56,1.375,1.0,28.940785673752867,Olasiti,Non-Government,EM.14312,-3.4179135,36.66439,411,437,34,34,848,1.063260340632603,6.151162790697675,,,2.269691224237779,9.869103773584904,10.0
PS0102029,ARUSHA INTERGRATED,30,221.4667,B,Arusha,Arusha CC,14,16,0.875,1.0,39.94472656754025,Elerai,Non-Government,EM.11085,-3.3634187,36.6580771,87,96,13,31,183,1.103448275862069,1.1446211861665,,,2.2695298903382928,10.114754098360656,10.0
PS0102028,ARUSHA MODERN,18,218.4444,B,Arusha,Arusha CC,7,11,0.6363636363636364,1.0,35.95925602867504,Elerai,Non-Government,EM.10890,-3.3605817,36.6609211,61,53,13,13,114,0.8688524590163934,1.7276488095238094,,,2.319176152000401,9.157894736842104,10.0
PS0102001,ARUSHA,171,230.4854,B,Arusha,Arusha CC,83,88,0.9431818181818182,1.0,31.004852712557256,Themi,Government,EM.180,-3.3760433,36.6941067,714,752,42,42,1466,1.0532212885154062,3.446717541000671,,,2.162450344166381,9.471350613915416,9.0
PS0102045,ASSUMPTION,38,244.1842,A,Arusha,Arusha CC,21,17,1.2352941176470589,1.0,29.83359318869379,Oloirien,Non-Government,EM.11563,-3.3828852,36.7086754,111,159,21,21,270,1.4324324324324325,1.786494026888365,,,2.0893616486298945,9.77777777777778,10.0
PS0102113,BARBRA,26,259.7308,A,Arusha,Arusha CC,12,14,0.8571428571428571,1.0,11.490384615384617,Sokoni I,Non-Government,EM.14969,-3.3995088,36.6700833,130,137,22,33,267,1.053846153846154,8.475830564784054,,,2.0422943146609103,8.928838951310862,9.0
PS0102102,BIBLE BAPTIST,15,242.0,A,Arusha,Arusha CC,10,5,2.0,1.0,29.808537181299062,Oloirien,Non-Government,EM.14570,-3.389691,36.71305,84,106,17,17,190,1.261904761904762,1.753488372093023,,,2.2217509503359194,8.74736842105263,8.0
PS0102114,BRIGHT FUTURE,73,255.274,A,Arusha,Arusha CC,34,39,0.8717948717948718,1.0,27.135001621601496,Baraa,Non-Government,EM.15920,-3.380951,36.7362,265,249,32,40,514,0.939622641509434,9.673063695310615,,,2.249916516659092,9.80739299610895,10.0
PS0102097,CAMP JOSHUA,14,212.5,B,Arusha,Arusha CC,7,7,1.0,1.0,27.369495532696355,Sinoni,Non-Government,EM.14970,-3.4052699,36.6662027,61,51,11,12,112,0.8360655737704918,4.164341085271317,,,2.63377723536183,9.973214285714286,10.0
PS0102140,CANOSSA,53,254.5283,A,Arusha,Arusha CC,27,26,1.0384615384615383,1.0,27.42981593851461,Baraa,Non-Government,EM.14315,-3.457314,36.710228,279,315,26,26,594,1.1290322580645162,1.0,,,2.5766860851486597,9.117845117845118,9.0
PS0102126,CARMEL,42,277.2619,A,Arusha,Arusha CC,16,26,0.6153846153846154,1.0,0.0,Olasiti,Non-Government,EM.16674,-3.3657887,36.674446,231,220,27,30,451,0.9523809523809524,1.0,,,2.0681240969884622,9.789356984478935,10.0
PS0102115,CHETI,55,226.5818,B,Arusha,Arusha CC,33,22,1.5,1.0,35.51607888695108,Muriet,Non-Government,EM.14971,-3.4724237,36.6684748,322,309,42,42,631,0.9596273291925466,2.282107039243493,,,1.7621994302746773,9.175911251980985,9.0
PS0102141,CLASSIC,26,259.7308,A,Arusha,Arusha CC,13,13,1.0,1.0,15.921543961883142,Sokoni I,Non-Government,EM.16994,-3.3869256,36.6829952,197,240,40,55,437,1.218274111675127,18.069719009949782,,,2.2450087069257334,8.292906178489703,8.0
PS0102116,DOMINION,58,258.1207,A,Arusha,Arusha CC,28,30,0.9333333333333332,1.0,25.93661669555932,Sokoni I,Non-Government,EM.15195,-3.4190654,36.6615265,203,193,36,36,396,0.9507389162561576,0.997797462012599,,,2.3525488893773323,9.83838383838384,10.0
PS0102127,ELYON,26,238.2308,B,Arusha,Arusha CC,15,11,1.3636363636363635,1.0,29.786481286913048,Baraa,Non-Government,EM.16675,-3.3881652,36.7319431,63,55,15,15,118,0.873015873015873,0.8141133306830981,,,2.401058490129925,9.398305084745765,9.0
PS0102058,ENALEPO,21,224.1429,B,Arusha,Arusha CC,6,15,0.4,0.9523809523809524,43.22872971256914,Daraja Ii,Non-Government,EM.13034,-3.3859827,36.6970378,110,100,18,18,210,0.9090909090909092,1.7543312245014877,,,1.9828973967827483,9.438095238095238,9.0
PS0102037,ENGARENAROK LUTH TETRA,60,217.0667,B,Arusha,Arusha CC,37,23,1.608695652173913,1.0,37.37996413521554,Ngarenaro,Non-Government,EM.10411,-3.361385,36.6712933,292,326,34,34,618,1.1164383561643836,1.7588208280740778,,,2.155962304539172,8.38673139158576,8.0
PS0102128,ERNEST MEYNER,8,223.5,B,Arusha,Arusha CC,5,3,1.6666666666666667,1.0,25.872508938060104,Sekei,Non-Government,EM.16676,-3.3631052,36.6992602,45,49,7,7,94,1.0888888888888888,0.6984632122943019,,,1.964401382894814,8.946808510638299,9.0
PS0102067,ESA,16,197.25,B,Arusha,Arusha CC,12,4,3.0,1.0,31.562867417415912,Sokoni I,Non-Government,EM.14316,-3.401541,36.671321,50,71,15,30,121,1.42,5.691362126245847,,,2.3342389635230822,8.702479338842975,8.0
PS0102129,ESERIAN,23,250.6957,A,Arusha,Arusha CC,10,13,0.7692307692307693,1.0,34.10085952051366,Muriet,Non-Government,EM.15921,-3.4230233,36.6613913,95,100,20,24,195,1.0526315789473684,2.2143886778975697,,,2.211939391379748,9.55897435897436,9.0
PS0102105,GHATI MEMORIAL,154,257.6494,A,Arusha,Arusha CC,78,76,1.0263157894736843,1.0,25.707750024158173,Sinoni,Non-Government,EM.14972,-3.4076327,36.6829956,525,529,31,31,1054,1.0076190476190476,5.934269695115434,,,2.279487931324538,9.142314990512334,9.0
PS0102117,GLORIOUS,33,179.4545,C,Arusha,Arusha CC,20,13,1.5384615384615383,0.9393939393939394,44.5640615127526,Sokoni I,Non-Government,EM.15196,-3.3957777,36.6736666,122,142,24,24,264,1.1639344262295082,5.868217054263567,,,2.3583827346401325,10.049242424242424,10.0
PS0102118,GLORYLAND,47,254.2553,A,Arusha,Arusha CC,28,19,1.4736842105263157,1.0,22.45522177715272,Baraa,Non-Government,EM.15922,-3.3871483,36.7328517,301,275,34,36,576,0.9136212624584718,5.424208264623419,,,2.3279534539914275,8.527777777777779,8.0
PS0102119,GOLGOTHA,48,239.7292,B,Arusha,Arusha CC,25,23,1.0869565217391304,1.0,29.45714725335017,Sokoni I,Non-Government,EM.15403,-3.4064473,36.6675744,185,192,34,42,377,1.037837837837838,2.2110077519379843,,,2.0533690867740826,9.745358090185675,10.0
PS0102106,GOOD HOPE,116,248.75,A,Arusha,Arusha CC,60,56,1.0714285714285714,1.0,29.126863190137176,Sombetini,Non-Government,EM.15197,-3.3999933,36.6678908,464,470,35,35,934,1.012931034482759,1.8063154852861136,,,2.036230591882012,9.767665952890791,10.0
PS0102039,GREEN VALLEY,124,270.7177,A,Arusha,Arusha CC,65,59,1.1016949152542372,1.0,10.556910584172154,Sombetini,Non-Government,EM.12377,-3.3893041,36.6643634,541,568,21,28,1109,1.0499075785582257,5.062040057525693,,,2.1789519730344136,9.279531109107303,10.0
PS0102046,HADY,60,260.2,A,Arusha,Arusha CC,28,32,0.875,1.0,22.267510275935404,Osunyai Jr,Non-Government,EM.12378,-3.3940461,36.6654966,186,160,20,20,346,0.8602150537634409,0.7795820788878244,,,2.2209041062029624,9.135838150289016,9.0
PS0102120,HEALSUN,5,177.8,C,Arusha,Arusha CC,1,4,0.25,1.0,29.39387691339813,Muriet,Non-Government,EM.15923,-3.4557768,36.6526512,27,20,7,9,47,0.7407407407407407,3.763565891472868,,,2.63004887495531,9.617021276595745,9.0
PS0102148,HEAVEN,14,206.2143,B,Arusha,Arusha CC,5,9,0.5555555555555556,0.9285714285714286,33.47249861102852,Moshono,Non-Government,EM.16998,-3.400161,36.740033,79,62,11,18,141,0.7848101265822784,1.0076614987080106,,,2.155725062652285,9.49645390070922,10.0
PS0102049,HIGH VIEW,32,246.9688,A,Arusha,Arusha CC,18,14,1.2857142857142858,1.0,25.872508938060104,Sombetini,Non-Government,EM.13035,-3.3864312,36.6601566,128,120,18,21,248,0.9375,0.9972227377401842,,,2.472428608839182,9.5,9.5
PS0102059,HIGHRIDGE,20,230.55,B,Arusha,Arusha CC,11,9,1.2222222222222223,1.0,38.30946358277546,Themi,Non-Government,EM.10891,-3.3941999,36.7067188,70,75,16,16,145,1.0714285714285714,1.0,,,2.14053234402438,9.786206896551723,10.0
PS0102077,HOPE,25,214.32,B,Arusha,Arusha CC,15,10,1.5,1.0,39.04843914934373,Moshono,Non-Government,EM.13887,-3.396949,36.73812024,91,100,21,21,191,1.098901098901099,1.152504472271914,,,2.260046358970209,9.471204188481677,9.0
PS0102033,IMANI,138,265.1449,A,Arusha,Arusha CC,63,75,0.84,1.0,13.962895665531548,Osunyai Jr,Non-Government,EM.10892,-3.3853796,36.669231,438,388,24,24,826,0.8858447488584474,0.936794445864213,,,2.30692320168372,9.650121065375302,10.0
PS0102101,INTEGRITY,33,213.0909,B,Arusha,Arusha CC,18,15,1.2,1.0,25.25693951317309,Terrat,Non-Government,EM.14973,-3.4443374,36.7090329,79,83,15,20,162,1.0506329113924051,1.4853302319830064,,,2.0614696370482584,9.148148148148149,9.0
PS0102103,INTEL,30,230.3333,B,Arusha,Arusha CC,12,18,0.6666666666666666,1.0,36.54607442059346,Terrat,Non-Government,EM.15198,-3.4575255,36.70095,100,107,19,26,207,1.07,1.0,,,2.2922794398202,9.96135265700483,10.0
PS0102130,JITIHADA,23,254.3043,A,Arusha,Arusha CC,10,13,0.7692307692307693,1.0,20.12267434225157,Muriet,Non-Government,EM.16677,-3.401783,36.72138,100,118,20,31,218,1.18,1.4425319086923047,,,2.3633292849955123,9.564220183486238,9.0
PS0102121,JOSHUA,26,185.4615,B,Arusha,Arusha CC,18,8,2.25,0.9615384615384616,40.52727549652946,Moshono,Non-Government,EM.15924,-3.45472,36.7109652,71,76,11,11,147,1.0704225352112675,1.0,,,2.3862332107510875,9.782312925170068,10.0
PS0102034,KILIMANI,50,226.32,B,Arusha,Arusha CC,25,25,1.0,1.0,28.30409908476156,Sekei,Non-Government,EM.11564,-3.361955,36.701498,127,122,17,21,249,0.9606299212598424,4.704275369614096,,,2.30328200230222,9.93574297188755,10.0
PS0102063,KIMANDOLU LUTH,36,223.0278,B,Arusha,Arusha CC,22,14,1.5714285714285714,1.0,32.68238458191012,Kimandolu,Non-Government,EM.11565,-3.370864,36.71531,163,140,19,19,303,0.8588957055214724,2.2843503711489053,,,1.954157713258153,9.838283828382838,10.0
PS0102122,KING DAVID,39,223.3846,B,Arusha,Arusha CC,20,19,1.0526315789473684,1.0,38.02228013917957,Muriet,Non-Government,EM.15925,-3.4316581,36.672023,190,173,30,30,363,0.9105263157894736,20.962255444813582,,,2.035982278578917,8.490358126721762,8.0
PS0102078,LADY OF MERCY,28,259.7143,A,Arusha,Arusha CC,14,14,1.0,1.0,15.387977764926667,Kimandolu,Non-Government,EM.13888,-3.3887586,36.716045,133,143,28,46,276,1.075187969924812,1.2508856281530698,,,2.210525032650568,9.326086956521738,9.0
PS0102040,LISE,14,165.4286,C,Arusha,Arusha CC,9,5,1.8,0.8571428571428571,38.3325938999964,Ngarenaro,Non-Government,EM.12380,-3.3656971,36.6738176,43,38,9,9,81,0.8837209302325582,3.1269841269841265,,,2.547222053933244,10.074074074074074,11.0
PS0102050,LOAMO,37,248.9459,A,Arusha,Arusha CC,15,22,0.6818181818181818,1.0,28.524200635842643,Oloirien,Non-Government,EM.12381,-3.384138,36.713043,146,123,21,21,269,0.8424657534246576,2.1253449932895614,,,2.2256266829641245,9.553903345724908,10.0
PS0102080,LUCKY VICENT,188,262.6064,A,Arusha,Arusha CC,89,99,0.898989898989899,1.0,22.45522177715272,Olasiti,Non-Government,EM.13508,-3.4101138,36.6554973,705,678,26,26,1383,0.9617021276595744,3.946976744186046,,,2.2034948273874404,9.825741142443963,10.0
PS0102107,MACHWA,55,234.5818,B,Arusha,Arusha CC,25,30,0.8333333333333334,0.9818181818181818,42.22649328960659,Muriet,Non-Government,EM.14974,-3.3500211,36.6263413,218,201,30,32,419,0.9220183486238532,1.5453161974704204,,,2.3845838442535547,9.477326968973747,10.0
PS0102132,MAJENGO,61,251.2787,A,Arusha,Arusha CC,33,28,1.1785714285714286,1.0,25.72957543638298,Elerai,Non-Government,EM.16679,-3.3693086,36.6588666,266,279,42,61,545,1.0488721804511278,17.566746853038165,,,2.212106012914548,10.187155963302752,10.0
PS0102060,MARANATHA MISSION,33,214.3333,B,Arusha,Arusha CC,15,18,0.8333333333333334,1.0,29.48046075920184,Levolosi,Non-Government,EM.14975,-3.3611536,36.6802463,99,101,17,17,200,1.02020202020202,12.915116279069766,,,2.272174069036085,9.415,9.0
PS0102026,MAROMBOSO-BAPTIST,44,192.3864,B,Arusha,Arusha CC,25,19,1.3157894736842106,0.9772727272727272,39.09943088930795,Ngarenaro,Non-Government,EM.10267,-3.3693832,36.676965,206,212,26,26,418,1.029126213592233,6.620171383563997,,,2.1797987065424027,10.045454545454543,10.0
PS0102133,MATONYOK,6,194.0,B,Arusha,Arusha CC,3,3,1.0,1.0,34.568897589532064,Olasiti,Non-Government,EM.16680,-3.4000345,36.6472669,29,21,6,6,50,0.7241379310344828,1.3796703296703297,,,2.575577605120839,9.92,11.0
PS0102099,MECSON,56,257.875,A,Arusha,Arusha CC,28,28,1.0,1.0,21.94421584146227,Olasiti,Non-Government,EM.14317,-3.4000345,36.6472669,242,249,27,27,491,1.0289256198347108,1.483697403250401,,,2.0434367902071124,8.84521384928717,9.0
PS0102083,MICHAEL,30,258.5333,A,Arusha,Arusha CC,13,17,0.7647058823529411,1.0,20.31109439581126,Elerai,Non-Government,EM.14318,-3.376009,36.665363,124,118,22,22,242,0.9516129032258064,7.516037764105477,,,2.787317967524804,9.68595041322314,9.0
PS0102053,MOUNT MERU,33,245.0606,A,Arusha,Arusha CC,21,12,1.75,1.0,28.166420117264146,Engutoto,Non-Government,EM.12383,-3.4410988,36.7130472,76,87,18,18,163,1.144736842105263,2.1932509462002225,,,2.7118785129620853,9.503067484662576,9.0
PS0102134,MOUNT SINAI,16,182.375,B,Arusha,Arusha CC,10,6,1.6666666666666667,0.9375,47.374907239355096,Olmoti,Non-Government,EM.16681,-3.3818533,36.6041454,79,91,17,17,170,1.1518987341772151,4.6613351119165065,,,2.3084394585009185,9.558823529411764,9.0
PS0102135,MURIET DARAJANI,397,187.529,B,Arusha,Arusha CC,213,184,1.1576086956521738,0.9848866498740554,34.38981411901833,Sokoni I,Government,EM.16682,-3.4178509,36.6902056,2088,2137,73,73,4225,1.0234674329501916,4.702323405176702,,,2.2583582245478,9.521656804733729,9.0
PS0102087,NAKIDO,98,243.9388,A,Arusha,Arusha CC,53,45,1.1777777777777778,1.0,28.804406355441166,Sokoni I,Non-Government,EM.14572,-3.3877456,36.6773513,282,289,25,25,571,1.024822695035461,2.4853045404208194,,,2.169066620352442,9.714535901926444,10.0
PS0102064,NALOPA,68,270.1618,A,Arusha,Arusha CC,37,31,1.1935483870967742,1.0,10.095224062666096,Engutoto,Non-Government,EM.13511,-3.447028,36.710923,291,271,28,35,562,0.9312714776632304,1.861938968225434,,,2.14918999073874,9.955516014234876,10.0
PS0102144,NARIVA HILL,84,272.7381,A,Arusha,Arusha CC,57,27,2.111111111111111,1.0,12.724291586248803,Baraa,Non-Government,EM.16999,-3.3705596,36.7328033,591,577,40,73,1168,0.976311336717428,3.165853096847773,,,2.026989384184195,8.243150684931507,8.0
PS0102136,NEJOLA,23,243.6087,A,Arusha,Arusha CC,11,12,0.9166666666666666,1.0,34.10085952051366,Olasiti,Non-Government,EM.15926,-3.413788,36.638446,137,140,21,21,277,1.0218978102189782,5.570708748615727,,,2.2395128709967453,9.205776173285198,9.0
PS0102061,NOTRE DAME,25,251.76,A,Arusha,Arusha CC,14,11,1.2727272727272727,1.0,26.82768346316916,Lemara,Non-Government,EM.11566,-3.425423,36.702165,118,108,17,17,226,0.9152542372881356,1.0,,,2.216385771053964,9.1858407079646,9.0
PS0102149,NYAHIRI,13,220.9231,B,Arusha,Arusha CC,8,5,1.6,1.0,36.83658740434071,Terrat,Non-Government,EM.17274,-3.4739583,36.7050349,66,70,17,17,136,1.0606060606060606,2.365248015873016,,,2.0491368762765125,7.852941176470588,8.0
PS0102031,PARENTS,25,242.44,A,Arusha,Arusha CC,11,14,0.7857142857142857,1.0,29.27140242625898,Sokoni I,Non-Government,EM.11568,-3.4040983,36.6779233,94,78,17,86,172,0.8297872340425532,12.16279069767442,,,2.2074962017635347,9.569767441860463,10.0
PS0102109,PEACE,33,247.8182,A,Arusha,Arusha CC,12,21,0.5714285714285714,1.0,29.19514548247505,Engutoto,Non-Government,EM.16683,-3.3310877,34.6120352,114,128,14,14,242,1.1228070175438596,1.2961946767480046,,,2.197480876996984,9.260330578512397,9.0
PS0102036,PRIME,30,214.4333,B,Arusha,Arusha CC,18,12,1.5,1.0,26.776960712523,Sekei,Non-Government,EM.13038,-3.382638,36.696001,181,166,18,18,347,0.9171270718232044,0.7304536846332973,,,2.097634325192806,8.812680115273775,9.0
PS0102146,RENEA,25,254.4,A,Arusha,Arusha CC,15,10,1.5,1.0,26.82768346316916,Lemara,Non-Government,EM.17000,-3.4034393,36.6948795,121,116,18,18,237,0.9586776859504132,1.0,,,2.1414821933510946,9.79324894514768,10.0
PS0102104,ROYAL,52,264.0192,A,Arusha,Arusha CC,24,28,0.8571428571428571,1.0,20.39340963693473,Sinoni,Non-Government,EM.14976,-3.3940732,36.6843222,245,281,40,66,526,1.146938775510204,17.59108527131783,,,2.095543476543882,9.20532319391635,9.0
PS0102137,ROYAL VISION,19,244.6842,A,Arusha,Arusha CC,8,11,0.7272727272727273,1.0,27.773563777004675,Sokoni I,Non-Government,EM.16684,-3.4052566,36.6686716,136,131,27,27,267,0.9632352941176472,8.120127353266888,,,2.1861048172600466,9.183520599250937,9.0
PS0102043,SHALOM,99,246.4242,A,Arusha,Arusha CC,54,45,1.2,1.0,30.63984117714179,Lemara,Non-Government,EM.12384,-3.43765,36.70437,299,338,24,24,637,1.1304347826086956,1.918513703086511,,,2.156085356755081,9.387755102040815,10.0
PS0102091,SHEPHERDS,48,267.375,A,Arusha,Arusha CC,29,19,1.5263157894736843,1.0,20.55869431917735,Moivaro,Non-Government,EM.14319,-3.389617,36.756941,187,227,24,24,414,1.213903743315508,1.8628813047417696,,,2.1763338641379044,9.53864734299517,9.0
PS0102062,SHINDA BASIC,11,249.8182,A,Arusha,Arusha CC,7,4,1.75,1.0,28.74248015201987,Sokoni I,Non-Government,EM.13513,-3.3951342,36.6778898,92,80,19,43,172,0.8695652173913043,18.73837209302325,,,2.48681623822593,8.087209302325581,8.0
PS0102098,SOJEMA,36,228.6944,B,Arusha,Arusha CC,21,15,1.4,1.0,34.00559013027159,Muriet,Non-Government,EM.14977,-3.4239797,36.6672372,133,144,25,25,277,1.0827067669172932,1.7730505602109028,,,2.2249340859553377,9.494584837545126,9.0
PS0102092,ST ANDREWS,48,207.2083,B,Arusha,Arusha CC,21,27,0.7777777777777778,0.9791666666666666,32.25679190364303,Oloirien,Non-Government,EM.11087,-3.3930458,36.7252308,156,155,19,28,311,0.9935897435897436,4.513953488372094,,,1.7467355494652048,9.331189710610932,9.0
PS0102110,ST GEMMA GALGAN,50,261.94,A,Arusha,Arusha CC,23,27,0.8518518518518519,1.0,19.416451787079943,Olmoti,Non-Government,EM.14756,-3.3700612,36.6025201,236,196,21,21,432,0.8305084745762712,2.4502325581395348,,,2.2153055940821047,9.703703703703704,10.0
PS0102100,ST JUDE,67,276.1194,A,Arusha,Arusha CC,39,28,1.3928571428571428,1.0,7.244944696671621,Moivaro,Non-Government,EM.14574,-3.3920172,36.7400322,145,250,14,14,395,1.7241379310344829,0.8389697511790533,,,2.1205369165881183,10.149367088607596,10.0
PS0102124,ST MARY GORETTI,46,249.1957,A,Arusha,Arusha CC,21,25,0.84,1.0,26.90349634430819,Lemara,Non-Government,EM.15405,-3.4150928,36.7049892,157,173,25,33,330,1.1019108280254777,1.7602018600296825,,,2.292511865176337,9.612121212121211,10.0
PS0102111,ST MONICA,89,271.1461,A,Arusha,Arusha CC,55,34,1.6176470588235294,1.0,13.758546253170472,Moshono,Non-Government,EM.14573,-3.4022833,36.7406516,286,334,19,19,620,1.167832167832168,1.0,,,2.2586606355992065,10.008064516129032,10.0
PS0102072,ST THADEUS,39,224.3846,B,Arusha,Arusha CC,18,21,0.8571428571428571,0.9743589743589745,42.255387248010045,Elerai,Non-Government,EM.13514,-3.368465,36.6648771,115,90,19,19,205,0.782608695652174,14.07751937984496,,,1.931460935260621,10.234146341463417,10.0
PS0102093,ST THOMAS,13,258.0,A,Arusha,Arusha CC,6,7,0.8571428571428571,1.0,0.0,Moshono,Non-Government,EM.10893,-3.3771112,36.7376696,28,32,5,7,60,1.1428571428571428,0.713828467094541,,,2.3764469276632294,9.95,10.0
PS0102125,STAR LIGHT,21,253.2381,A,Arusha,Arusha CC,13,8,1.625,1.0,31.466580551594376,Moivaro,Non-Government,EM.15927,-3.3747801,36.7491793,125,119,19,19,244,0.952,2.6747650497650493,,,2.00799179282262,8.569672131147541,8.0
PS0102035,SWIFTS,11,223.3636,B,Arusha,Arusha CC,5,6,0.8333333333333334,1.0,36.88733684931335,Ngarenaro,Non-Government,EM.11569,-3.3655453,36.6750912,37,47,9,9,84,1.2702702702702702,1.5668604651162787,,,2.1326144090498578,10.107142857142858,10.0
PS0102150,TANGANYIKA,25,260.28,A,Arusha,Arusha CC,17,8,2.125,1.0,19.416451787079943,Lemara,Non-Government,EM.17275,-3.41558,36.70428,92,126,16,16,218,1.3695652173913044,1.0,,,1.7185864145778895,8.862385321100918,9.0
PS0102138,TEREZA NUZZO,33,267.4848,A,Arusha,Arusha CC,12,21,0.5714285714285714,1.0,17.17691729046006,Sokoni I,Non-Government,EM.16685,-3.3566666,36.71485,173,152,27,27,325,0.8786127167630058,2.7714765512645125,,,2.1245257041174206,9.615384615384617,10.0
PS0102071,TUISHIME,33,253.3939,A,Arusha,Arusha CC,20,13,1.5384615384615383,1.0,27.459200471641225,Engutoto,Non-Government,EM.12385,-3.4196,36.7079,119,134,16,16,253,1.1260504201680672,12.186046511627907,,,1.837608877482334,8.312252964426877,8.0
PS0102095,UHURU PEAK,75,228.8933,B,Arusha,Arusha CC,41,34,1.2058823529411764,1.0,33.67379726467186,Baraa,Non-Government,EM.14320,-3.3702688,36.7375,228,255,18,25,483,1.118421052631579,0.9092837268886652,,,2.056860534132112,9.31055900621118,9.0
PS0102055,UNITY,2,212.0,B,Arusha,Arusha CC,0,2,,1.0,59.875,Ngarenaro,Non-Government,EM.12386,-3.3686452,36.675275,7,6,1,2,13,0.8571428571428571,0.2419354838709677,,,2.7456258919345764,9.0,8.0
PS0102112,UPENDO FRIENDS,39,261.5897,A,Arusha,Arusha CC,24,15,1.6,1.0,21.55787243457307,Olmoti,Non-Government,EM.14575,-3.3721756,36.5990163,120,128,19,19,248,1.0666666666666669,2.1745326732586587,,,2.238567904779306,9.85483870967742,10.0
PS0102159,ZASHAZ,16,280.75,A,Arusha,Arusha CC,10,6,1.6666666666666667,1.0,0.0,Osunyai Jr,Non-Government,EM.17362,-3.4018924,36.6631035,40,44,8,8,84,1.1,2.3326721386228906,,,2.468738787683715,9.30952380952381,9.0
PS0103110,CATHERINE,11,270.5455,A,Arusha,Karatu,6,5,1.2,1.0,17.17691729046006,Karatu,Non-Government,EM.16686,-3.3583866,35.6731682,120,104,19,32,224,0.8666666666666667,9.278137047630892,,,1.9015761118566024,9.008928571428571,9.0
PS0103111,CHARM MODERN,13,283.0,A,Arusha,Karatu,7,6,1.1666666666666667,1.0,0.0,Karatu,Non-Government,EM.16687,-3.0,35.0,61,60,15,15,121,0.9836065573770492,1.4443751991242813,,,1.868024556439274,8.512396694214877,8.0
PS0103097,COSTIGAN,58,261.1552,A,Arusha,Karatu,28,30,0.9333333333333332,1.0,25.568206908550124,Karatu,Non-Government,EM.14757,-3.4699747,35.6782083,278,275,24,24,553,0.9892086330935252,3.2934883720930226,,,2.3960783370425696,9.401446654611211,10.0
PS0103116,HOT SPRING,11,281.8182,A,Arusha,Karatu,5,6,0.8333333333333334,1.0,0.0,Rhotia,Non-Government,EM.18031,-3.3798738,35.8224792,53,47,7,7,100,0.8867924528301887,1.5691547005173363,,,2.0477060335897828,9.63,10.0
PS0103090,TUMAINI JUNIOR,72,270.4861,A,Arusha,Karatu,35,37,0.945945945945946,1.0,6.992534013156769,Karatu,Non-Government,EM.13517,-3.334801,35.671543,303,305,20,20,608,1.006600660066007,2.061201208352371,,,2.2216175969842147,10.608552631578949,11.0
PS0103106,YAMAWEEGA,38,101.6316,D,Arusha,Karatu,17,21,0.8095238095238095,0.3157894736842105,30.51125209658537,Baray,Non-Government,EM.17001,-3.864716,34.886997,208,184,56,56,392,0.8846153846153846,12.19423101016124,,,1.804101760784382,10.196428571428571,10.0
PS0104031,ABERNATHY,18,184.1667,B,Arusha,Longido,7,11,0.6363636363636364,1.0,29.24988129130708,Longido,Non-Government,EM.13894,-2.7166666,36.7,87,50,14,20,137,0.5747126436781609,5.579962121212121,,,2.3522003986328346,11.0,11.0
PS0104049,GREEN EDEN,28,266.4643,A,Arusha,Longido,13,15,0.8666666666666667,1.0,11.088218116311474,Namanga,Non-Government,EM.17423,-2.55,36.8,117,144,17,29,261,1.2307692307692308,1.972369878183832,,,2.191664655175677,9.383141762452109,9.0
PS0104052,KARAO,11,143.9091,C,Arusha,Longido,3,8,0.375,0.7272727272727273,34.49757447456414,Engarenaibor,Non-Government,EM.17916,-2.3433333,36.3139999,73,61,13,19,134,0.8356164383561644,3.661904761904761,,,2.3651536699291125,9.380597014925373,9.0
PS0104050,LONGIDO MODERN,14,209.7857,B,Arusha,Longido,5,9,0.5555555555555556,1.0,22.630665092988767,Longido,Non-Government,EM.17652,-2.7375043,36.7002351,63,68,22,22,131,1.0793650793650793,2.309837578442229,,,2.089791381218548,9.274809160305344,9.0
PS0104046,MAASAI,6,171.8333,C,Arusha,Longido,3,3,1.0,1.0,28.284271247461906,Kimokouwa,Non-Government,EM.15933,-2.55,36.7666666,56,46,20,20,102,0.8214285714285714,1.9861572535991143,,,2.2357240728564918,8.627450980392156,7.5
PS0104037,MAIROWA INTERGRITY,33,223.6667,B,Arusha,Longido,21,12,1.75,1.0,36.88733684931335,Engarenaibor,Non-Government,EM.14758,-2.53333333,36.4833333,146,131,23,23,277,0.8972602739726028,1.2039262829926125,,,2.992450979834543,10.28519855595668,11.0
PS0104038,NEW VISION ENGIKARET,16,206.75,B,Arusha,Longido,9,7,1.2857142857142858,1.0,21.16904962697605,Engikaret,Non-Government,EM.15407,-3.0,36.666666,109,139,12,28,248,1.275229357798165,1.8005167958656327,,,2.6238817547784645,10.048387096774194,10.0
PS0104034,ST THERESA,40,243.725,A,Arusha,Longido,18,22,0.8181818181818182,1.0,29.72524968356027,Kimokouwa,Non-Government,EM.13041,-2.55,36.7833333,146,147,21,23,293,1.0068493150684932,2.003152454780362,,,2.3698101582982867,9.716723549488057,10.0
PS0105157,AKERI HOPE,20,212.3,B,Arusha,Meru,8,12,0.6666666666666666,1.0,29.796906299144545,Akheri,Non-Government,EM.17280,-3.362681,36.761918,86,77,15,33,163,0.8953488372093024,2.255813953488372,,,2.473617806017439,9.355828220858896,9.0
PS0105002,AMANI,58,235.1207,B,Arusha,Meru,29,29,1.0,1.0,29.80386894668944,Usariver,Non-Government,EM.11091,-3.37221,36.84475,186,233,22,22,419,1.2526881720430108,2.1043643944370563,,,1.9832949920871104,9.145584725536994,9.0
PS0105159,ANGAZA LUTHERAN,40,197.275,B,Arusha,Meru,14,26,0.5384615384615384,0.975,46.18127326092255,Poli,Non-Government,EM.16688,-3.3765921,36.8310512,154,124,28,28,278,0.8051948051948052,6.869428418803419,,,2.1802033344093386,10.075539568345324,10.0
PS0105131,BERNADETE NSHUPU,4,189.75,B,Arusha,Meru,1,3,0.3333333333333333,1.0,30.0,Nkoaranga,Non-Government,EM.15410,-3.35609,36.84322,15,9,4,4,24,0.6,1.807692307692308,,,2.331844763272204,9.25,9.0
PS0105153,BETHLEHEM STAR,18,247.2222,A,Arusha,Meru,11,7,1.5714285714285714,1.0,29.690013701247207,Usariver,Non-Government,EM.17281,-3.36136,36.85253,115,117,26,26,232,1.017391304347826,26.172286821705427,,,2.252059270355427,8.788793103448276,9.0
PS0105161,BLUE SKY,42,220.6667,B,Arusha,Meru,23,19,1.2105263157894737,1.0,35.9337803704539,Kikwe,Non-Government,EM.17002,-3.39492,36.82098,387,375,32,36,762,0.9689922480620154,1.0149229214640858,,,2.071009179748484,8.816272965879264,9.0
PS0105136,CAPRICORN,15,207.2667,B,Arusha,Meru,6,9,0.6666666666666666,1.0,26.49283970350396,Poli,Non-Government,EM.15207,-3.38387,36.83443,43,58,11,11,101,1.3488372093023255,14.604651162790695,,,2.3458452427538123,10.108910891089108,10.0
PS0105133,CHERITH JUNIOR,26,220.7692,B,Arusha,Meru,12,14,0.8571428571428571,1.0,23.484950487669416,Maji ya chai,Non-Government,EM.15208,-3.37522,36.89516,160,170,24,24,330,1.0625,36.69767441860465,,,2.2177098355286584,9.054545454545456,9.0
PS0105109,DAVIS PREPARATORY,99,253.303,A,Arusha,Meru,57,42,1.3571428571428572,1.0,26.293646452925657,Ambureni,Non-Government,EM.14322,-3.36898,36.75682,279,330,26,26,609,1.1827956989247312,11.907523742407465,,,2.3086385572912564,9.858784893267652,10.0
PS0105151,DESTINY,12,224.0,B,Arusha,Meru,7,5,1.4,1.0,22.267510275935408,Imbaseni,Non-Government,EM.17282,-3.36294,36.89074,71,59,13,13,130,0.8309859154929577,2.961802603081673,,,2.0613231804930225,9.53076923076923,9.5
PS0105140,DIAMOND,19,226.0526,B,Arusha,Meru,9,10,0.9,1.0,24.359026835357174,Imbaseni,Non-Government,EM.15934,-3.36939,36.88487,147,141,24,24,288,0.9591836734693876,37.90232558139535,,,2.1833293575027413,9.0625,9.0
PS0105148,EAST MERU COMMUNITY,28,183.0714,B,Arusha,Meru,15,13,1.1538461538461535,0.9642857142857144,33.94924182376041,Maruvango,Non-Government,EM.15935,-3.25112,36.9705,111,118,19,57,229,1.063063063063063,2.6377831470854725,,,2.2088215114926197,9.764192139737991,10.0
PS0105119,ELIZABETH CENTRE,32,198.25,B,Arusha,Meru,17,15,1.1333333333333333,1.0,27.790755852258567,Malula,Non-Government,EM.14323,-3.3750605,37.0635173,139,140,25,25,279,1.0071942446043165,4.439534883720929,,,2.368576372409574,9.372759856630823,9.0
PS0105132,ESTHA MEMORIAL ACADEMY,21,216.8095,B,Arusha,Meru,12,9,1.3333333333333333,1.0,22.436727614154123,Imbaseni,Non-Government,EM.15209,-3.31848,36.87289,93,68,13,13,161,0.7311827956989247,2.9007575757575754,,,2.471206822818251,8.894409937888199,8.0
PS0105154,GRACE ULONG'A,12,194.0,B,Arusha,Meru,9,3,3.0,1.0,37.37206765717174,Nkoanrua,Non-Government,EM.17003,-3.3684617,36.7531625,36,54,11,11,90,1.5,6.071705426356589,,,2.245984070389736,9.0,8.0
PS0105112,HARADALI,131,238.855,B,Arusha,Meru,72,59,1.2203389830508475,1.0,31.656910768697625,Ambureni,Non-Government,EM.14324,-3.36494,36.76423,401,431,23,24,832,1.0748129675810474,3.1248837209302325,,,2.0877286213742385,9.56610576923077,10.0
PS0105162,HOLY PEAK,22,265.9545,A,Arusha,Meru,14,8,1.75,1.0,12.445858989709611,Maji ya chai,Non-Government,EM.17373,-3.379442,36.89465,85,105,10,10,190,1.2352941176470589,2.6372093023255814,,,2.380140595023236,9.257894736842106,9.0
PS0105137,IMBASSENY PEACE,30,225.1333,B,Arusha,Meru,15,15,1.0,1.0,29.62902105856501,Imbaseni,Non-Government,EM.14981,-3.36578,36.89547,128,113,20,20,241,0.8828125,1.0,,,2.233490900648172,9.510373443983402,10.0
PS0105170,KIWAHUMU,9,223.7778,B,Arusha,Meru,5,4,1.25,1.0,18.777613411509428,Songoro,Non-Government,EM.17768,-3.3922994,36.8130828,52,49,10,14,101,0.9423076923076924,8.904761904761905,,,2.1863036241355283,8.851485148514852,9.0
PS0105144,KOMBO,14,245.4286,A,Arusha,Meru,9,5,1.8,1.0,29.568581643497268,Nkoaranga,Non-Government,EM.15210,-3.3449779,36.8156385,80,104,20,20,184,1.3,12.988372093023257,,,2.2088229593574265,9.684782608695652,10.0
PS0105155,MANYOTA,27,239.1111,B,Arusha,Meru,8,19,0.4210526315789473,1.0,29.69001370124721,Malula,Non-Government,EM.15936,-3.37517,37.01936,131,98,18,29,229,0.7480916030534351,1.7531007751937984,,,2.2380328039600377,9.825327510917033,10.0
PS0105052,MARIADO,16,189.4375,B,Arusha,Meru,11,5,2.2,1.0,33.506117532614475,Poli,Non-Government,EM.15937,-3.3960721,36.8342013,43,35,11,11,78,0.813953488372093,3.900387596899225,,,2.1572393905863048,10.012820512820513,10.0
PS0105113,MAUA,33,214.7273,B,Arusha,Meru,10,23,0.4347826086956521,1.0,25.25693951317309,Nkoaranga,Non-Government,EM.12401,-3.35556,36.84117,98,99,16,20,197,1.010204081632653,2.126961165829155,,,2.670070062272214,9.791878172588833,10.0
PS0105169,MERU VISION,6,204.8333,B,Arusha,Meru,2,4,0.5,1.0,34.568897589532064,Maroroni,Non-Government,EM.17757,-3.46656,36.87661,20,35,8,8,55,1.75,3.291666666666667,,,1.6778577447359022,9.054545454545456,9.0
PS0105138,NARIVA ACADEMY,35,245.9143,A,Arusha,Meru,19,16,1.1875,1.0,38.07474523210623,Ngarenanyuki,Non-Government,EM.15211,-3.14105,36.877228,120,122,24,27,242,1.0166666666666666,9.19612403100775,,,2.047790635269088,9.90495867768595,10.0
PS0105160,NEW HOPE,18,154.0556,C,Arusha,Meru,9,9,1.0,0.7777777777777778,40.0,Kikwe,Non-Government,EM.17004,-3.40655,36.82732,61,63,12,12,124,1.0327868852459017,8.091958622772577,,,2.343654394512065,9.67741935483871,10.0
PS0105125,NGORIKA HAPPY WATOTO,35,197.1714,B,Arusha,Meru,19,16,1.1875,0.9714285714285714,33.838175820471506,Maji ya chai,Non-Government,EM.14984,-3.34008,36.90759,113,117,7,7,230,1.0353982300884956,0.9401993355481728,,,2.192080607848249,9.6,9.0
PS0105129,NIRUVANDE,9,158.5556,C,Arusha,Meru,4,5,0.8,0.8888888888888888,33.9934634239519,Leguruki,Non-Government,EM.14759,-3.23417,36.93069,59,50,14,14,109,0.847457627118644,3.152325581395349,,,2.2791472630007705,8.871559633027523,9.0
PS0105130,PEACE MATUNDA,9,224.0,B,Arusha,Meru,5,4,1.25,1.0,39.88892757658291,Nkoarisambu,Non-Government,EM.15212,-3.33773,36.77367,64,63,13,13,127,0.984375,1.2850178890876565,,,2.343812916364695,9.89763779527559,10.0
PS0105156,PIERALBA,12,247.5833,A,Arusha,Meru,6,6,1.0,1.0,28.166420117264146,Mbuguni,Non-Government,EM.17283,-3.58853,36.91339,85,90,18,25,175,1.0588235294117647,1.5280735338532876,,,2.3279385643061272,9.411428571428573,9.0
PS0105150,PRECIOUS,39,267.4872,A,Arusha,Meru,18,21,0.8571428571428571,1.0,13.179203453994791,Nkoaranga,Non-Government,EM.17005,-3.34795,36.83791,143,164,17,17,307,1.1468531468531469,2.187209302325581,,,2.195618546928394,9.550488599348537,10.0
PS0105149,SHAKINA,10,250.2,A,Arusha,Meru,5,5,1.0,1.0,23.9,Kikatiti,Non-Government,EM.16690,-3.39402,36.9434,132,97,21,21,229,0.7348484848484849,2.6622547084139456,,,2.1831877620076416,7.895196506550218,7.0
PS0105145,SHIKABANIA,24,204.7917,B,Arusha,Meru,14,10,1.4,1.0,11.9895788082818,Nkoaranga,Non-Government,EM.16691,-3.33406,36.8119,99,92,21,48,191,0.9292929292929292,2.451162790697674,,,2.088565608715844,9.712041884816754,10.0
PS0105152,SILVER,22,236.0909,B,Arusha,Meru,7,15,0.4666666666666667,1.0,29.751293464485165,Kikwe,Non-Government,EM.17006,-3.41246,36.82375,70,70,11,11,140,1.0,4.233564045773348,,,2.4639854889580657,9.414285714285716,9.0
PS0105115,SLUYS ANDERSON,56,185.2857,B,Arusha,Meru,31,25,1.24,0.9642857142857144,33.94924182376042,Kikatiti,Non-Government,EM.12403,-3.3811557,36.9683149,248,242,27,27,490,0.9758064516129032,6.637080103359175,,,2.396809103276901,10.014285714285714,10.0
PS0105139,ST. FRANCIS DE SALE,63,246.381,A,Arusha,Meru,35,28,1.25,1.0,28.4839771652842,Imbaseni,Non-Government,EM.14980,-3.36191,36.89855,194,209,24,24,403,1.077319587628866,1.0,,,2.0230341762538835,9.317617866004962,9.0
PS0105043,STEPS,25,221.48,B,Arusha,Meru,15,10,1.5,1.0,23.444713689870472,Imbaseni,Non-Government,EM.13042,-3.334125,36.8822366,80,120,25,25,200,1.5,2.732577277563598,,,2.36936700407514,10.31,10.0
PS0105164,SUNSHIELD,16,197.5,B,Arusha,Meru,6,10,0.6,1.0,27.81074432660873,Maji ya chai,Non-Government,EM.17370,-1.36508,36.90629,111,88,17,17,199,0.7927927927927928,4.438240513240513,,,2.196836418636173,8.944723618090451,9.0
PS0105088,TANZANIA ADVENTIST,56,194.8214,B,Arusha,Meru,23,33,0.696969696969697,0.9642857142857144,39.111843324820505,Imbaseni,Non-Government,EM.9134,-3.32156,36.88163,149,125,14,14,274,0.8389261744966443,31.689479512735325,,,2.2980995746173427,10.058394160583942,10.0
PS0105124,TENGERU,61,243.7869,A,Arusha,Meru,26,35,0.7428571428571429,1.0,29.548046293693496,Akheri,Non-Government,EM.15214,-3.36141,36.78083,265,250,27,27,515,0.9433962264150944,1.5422557857087265,,,1.9299251745048256,9.281553398058252,10.0
PS0105163,THE SCHOOL OF KELLY,10,214.3,B,Arusha,Meru,4,6,0.6666666666666666,1.0,32.22747275229629,Maji ya chai,Non-Government,EM.17385,-3.37933,36.9001,142,150,13,13,292,1.056338028169014,1.7687306433294565,,,1.8411922063847497,8.020547945205479,8.0
PS0105135,TUMAINI MISSION TRUST,38,214.7368,B,Arusha,Meru,18,20,0.9,1.0,34.981629156781764,Imbaseni,Non-Government,EM.15215,-3.37242,36.88204,121,121,16,16,242,1.0,19.212701252236133,,,2.257911891299646,10.3099173553719,10.0
PS0105118,UPENDO ACADEMY,12,175.75,C,Arusha,Meru,5,7,0.7142857142857143,1.0,38.681452587843125,Usariver,Non-Government,EM.11100,-3.37736,36.84352,91,72,16,16,163,0.7912087912087912,1.0,,,2.268114007156584,8.83435582822086,8.0
PS0105126,YOUNG ROSES,20,232.4,B,Arusha,Meru,14,6,2.333333333333333,1.0,29.271402426258977,Usariver,Non-Government,EM.14584,-3.36633,36.85555,85,92,16,20,177,1.0823529411764703,3.405116653372467,,,2.1334548227400694,9.045197740112997,9.0
PS0106070,EMBURIS,21,252.9524,A,Arusha,Monduli,10,11,0.9090909090909092,1.0,20.908144590184985,Engutoto,Non-Government,EM.17402,-3.2895651,36.4489364,88,96,18,18,184,1.0909090909090908,1.9913594119818467,,,2.6639472734298564,9.081521739130435,9.0
PS0106068,HIHA,12,201.8333,B,Arusha,Monduli,4,8,0.5,1.0,22.36067977499789,Makuyuni,Non-Government,EM.17285,-3.549262,36.1119154,40,33,9,9,73,0.825,1.3921834625323,,,2.0557075597045555,9.219178082191782,9.0
PS0106040,KHATAMULANBIYAA,34,174.9706,C,Arusha,Monduli,22,12,1.8333333333333333,0.9705882352941176,32.15447145580341,Sepeko,Non-Government,EM.11585,-3.415004,34.321258,129,179,22,26,308,1.3875968992248062,2.3695630666407648,,,2.575121561041472,10.282467532467532,10.0
PS0106065,MEYER'S,16,246.375,A,Arusha,Monduli,6,10,0.6,1.0,29.64068265677049,Engutoto,Non-Government,EM.16693,-3.29536208,36.43487706,108,99,19,19,207,0.9166666666666666,1.01937984496124,,,2.0202480375122134,8.618357487922705,8.0
PS0106062,MONDULI VALLEY,22,224.6364,B,Arusha,Monduli,10,12,0.8333333333333334,1.0,42.489365769712265,Monduli Mjini,Non-Government,EM.14985,-3.302417,36.448553,62,79,18,18,141,1.2741935483870968,1.5147843584484093,,,2.265199820068372,9.297872340425531,9.0
PS0106051,MWALIMU ANNA ACADEMY,61,266.8033,A,Arusha,Monduli,38,23,1.6521739130434785,1.0,14.790249426473029,Migungani,Non-Government,EM.14765,-3.372,35.8684,204,187,19,19,391,0.9166666666666666,1.1022242155604252,,,2.38654421802664,9.948849104859336,10.0
PS0106063,NANINA,34,228.7059,B,Arusha,Monduli,16,18,0.8888888888888888,1.0,32.03908003082257,Engutoto,Non-Government,EM.14986,-3.321517,36.089995,111,131,19,19,242,1.18018018018018,5.372093023255815,,,2.074252572546934,9.673553719008265,10.0
PS0106067,NGALAWA ACADEMY,10,231.8,B,Arusha,Monduli,4,6,0.6666666666666666,1.0,27.380889777361144,Majengo,Non-Government,EM.17286,-3.3798596,35.8909281,78,121,20,20,199,1.551282051282051,2.271467750034484,,,1.963223396584388,7.994974874371859,8.0
PS0106066,OOLA ACADEMY,30,286.4333,A,Arusha,Monduli,15,15,1.0,1.0,0.0,Esilalei,Non-Government,EM.16695,-3.383094,35.895403,143,140,26,26,283,0.9790209790209792,2.295006812013741,,,2.5186192486661767,9.1660777385159,9.0
PS0106058,PERFECT,14,204.0,B,Arusha,Monduli,8,6,1.3333333333333333,1.0,33.43366967380552,Esilalei,Non-Government,EM.16696,-1.3445,35.95395,37,39,11,11,76,1.054054054054054,8.116279069767442,,,2.709472201774428,9.88157894736842,10.0
PS0106069,SASA,29,254.3793,A,Arusha,Monduli,19,10,1.9,1.0,25.568206908550128,Esilalei,Non-Government,EM.17416,-3.370927,35.888961,143,201,16,25,344,1.4055944055944056,3.291445182724253,,,2.315791530716259,9.40406976744186,9.0
PS0107066,BRIGHT,29,229.1379,B,Arusha,Ngorongoro,12,17,0.7058823529411765,1.0,31.68981698581628,Orgosorok,Non-Government,EM.17008,-2.5082,35.58084,140,119,17,32,259,0.85,6.345277923490899,,,1.9496272710513645,9.818532818532818,10.0
PS0107080,BUTEMINE,3,255.3333,A,Arusha,Ngorongoro,1,2,0.5,1.0,28.166420117264146,Samunge,Non-Government,EM.18167,-2.14682,35.73962,50,49,10,12,99,0.98,1.8453912366703065,,,1.8982912963858016,10.494949494949497,11.0
PS0107079,DIGODIGO GCCT,15,234.6,B,Arusha,Ngorongoro,7,8,0.875,1.0,36.54607442059346,Digodigo,Non-Government,EM.17798,-2.148808,35.728768,68,52,13,13,120,0.7647058823529411,2.719878183831673,,,2.509855573534063,9.725,9.0
PS0107049,LOLIONDO GCCT,32,220.4063,B,Arusha,Ngorongoro,13,19,0.6842105263157895,1.0,39.89627359145682,Orgosorok,Non-Government,EM.12405,-2.0588398,35.5690412,138,121,22,37,259,0.8768115942028986,1.01046511627907,,,2.045231728655573,9.386100386100386,9.0
PS0107058,LUMO,30,249.6,A,Arusha,Ngorongoro,11,19,0.5789473684210527,1.0,28.166420117264146,Orgosorok,Non-Government,EM.14326,-2.0571345,35.5622294,95,76,11,19,171,0.8,6.143613169775961,,,2.380023562401631,10.473684210526317,11.0
PS0107067,MARIE CORRENSON,25,239.04,B,Arusha,Ngorongoro,12,13,0.9230769230769232,1.0,29.27140242625898,Orgosorok,Non-Government,EM.16698,-2.050536,35.55402,116,127,61,61,243,1.0948275862068966,2.6594997600537025,,,2.1275282370068864,9.806584362139915,10.0
PS0107056,NASERIAN,36,183.4167,B,Arusha,Ngorongoro,22,14,1.5714285714285714,0.9444444444444444,40.8979482151596,Malambo,Non-Government,EM.13897,-2.051797,35.60972,98,157,21,23,255,1.6020408163265305,2.226499388004896,,,1.9636214767907283,10.054901960784314,10.0
PS0107073,OSOTWA,16,248.75,A,Arusha,Ngorongoro,5,11,0.4545454545454545,1.0,25.872508938060104,Enduleni,Non-Government,EM.17582,-3.22199,35.25992,87,62,17,17,149,0.7126436781609196,21.69767441860465,,,2.5099056043936256,10.563758389261745,11.0
PS0202112,ABC CAPITAL,81,260.284,A,Dar es Salaam,Dar es Salaam CC,46,35,1.3142857142857145,1.0,21.932039695118043,Ukonga,Non-Government,EM.14987,-6.696383,36.61187,281,339,24,24,620,1.206405693950178,0.7214728682170543,,,2.210383098996376,8.84032258064516,9.0
PS0202105,ACCT,52,242.1154,A,Dar es Salaam,Dar es Salaam CC,26,26,1.0,1.0,29.06862926077856,Kisukulu,Non-Government,EM.14989,-6.81987775,39.183925,191,173,17,19,364,0.9057591623036648,2.104512195121952,,,2.3444804491099744,10.302197802197805,10.0
PS0202097,AFRICAN,17,212.6471,B,Dar es Salaam,Dar es Salaam CC,13,4,3.25,1.0,35.57110063931171,Segerea,Non-Government,EM.13526,-6.8366972,34.1513889,104,150,17,17,254,1.4423076923076923,2.2073643410852712,,,2.156848002059164,8.960629921259843,9.0
PS0202100,AGNES MICHAEL,31,268.5484,A,Dar es Salaam,Dar es Salaam CC,17,14,1.2142857142857142,1.0,17.665090178942673,Kisukulu,Non-Government,EM.14328,-6.8146125,39.1792365,161,141,25,30,302,0.8757763975155279,1.0549089555761304,,,2.2037661485487936,8.774834437086092,8.0
PS0202111,AL-FAROUQ,55,250.6727,A,Dar es Salaam,Dar es Salaam CC,20,35,0.5714285714285714,1.0,31.998127527861005,Tabata,Non-Government,EM.15413,-6.8298227,39.2230564,266,188,21,21,454,0.706766917293233,1.0,,,2.0771625833149714,9.759911894273127,10.0
PS0202068,AL-FURQAAN,66,165.2121,C,Dar es Salaam,Dar es Salaam CC,42,24,1.75,0.8939393939393939,37.746435440048536,Ilala,Non-Government,EM.10034,-6.8294409,39.2641702,141,196,24,24,337,1.3900709219858156,1.8716957966199628,,,2.419065644754252,9.47774480712166,10.0
PS0202099,AL-HILAL,27,174.0,C,Dar es Salaam,Dar es Salaam CC,9,18,0.5,0.925925925925926,37.44955454745048,Mchafukoge,Non-Government,EM.9138,-6.8191734,39.2816624,116,94,12,12,210,0.8103448275862069,1.1054362872550434,,,2.220605420909836,10.128571428571428,10.5
PS0202041,AL-MADRASA-TUS-ASAIFIYA-TUL,27,201.9259,B,Dar es Salaam,Dar es Salaam CC,10,17,0.5882352941176471,1.0,22.636012465906024,Upanga Magharibi,Non-Government,EM.9056,-6.807195,39.279964,133,145,15,15,278,1.0902255639097744,1.0,,,2.0030028954916315,9.62230215827338,9.0
PS0202051,AL-MUNTAZIRBOYS,156,193.7179,B,Dar es Salaam,Dar es Salaam CC,0,156,,0.9423076923076924,44.19945830040392,Kivukoni,Non-Government,EM.9337,-6.48,39.17,158,0,2,3,158,,2.2253521126760565,,,0.6298978891416235,12.044303797468354,12.0
PS0202067,ALMUNTAZIRGIRLS,168,186.8036,B,Dar es Salaam,Dar es Salaam CC,168,0,,0.9226190476190476,44.95534078907664,Upanga Magharibi,Non-Government,EM.11113,-6.7953461,39.2789388,0,174,10,10,174,,0.87,,,0.4693330203040068,12.327586206896552,12.0
PS0202090,ANDREWS,9,246.4444,A,Dar es Salaam,Dar es Salaam CC,6,3,2.0,1.0,28.166420117264146,Kimanga,Non-Government,EM.13048,-6.8257066,39.1934666,83,78,16,16,161,0.9397590361445785,1.865245478036176,,,2.384446081993733,7.633540372670807,7.0
PS0202116,BARIADI,32,260.375,A,Dar es Salaam,Dar es Salaam CC,9,23,0.391304347826087,1.0,17.41596557568927,Segerea,Non-Government,EM.15414,-6.792354,39.208328,158,124,20,20,282,0.7848101265822784,1.2362093981621949,,,2.031354743133281,9.0354609929078,9.0
PS0202029,CHRISTTHEKING,65,250.7385,A,Dar es Salaam,Dar es Salaam CC,38,27,1.4074074074074074,1.0,28.835142513727625,Tabata,Non-Government,EM.13527,-6.8344211,39.2172113,282,296,22,22,578,1.049645390070922,0.9214736221632774,,,2.1806529259245067,8.782006920415226,9.0
PS0202046,DIAMOND,435,225.2368,B,Dar es Salaam,Dar es Salaam CC,230,205,1.1219512195121952,0.9977011494252872,36.72975373930919,Upanga Mashariki,Government,EM.11115,-6.8085125,39.2802125,2041,2007,55,56,4048,0.9833414992650662,1.0,,,2.164198052960698,9.256422924901186,9.0
PS0202108,FOUNTAIN GATE ACADEMY,136,258.6176,A,Dar es Salaam,Dar es Salaam CC,58,78,0.7435897435897436,1.0,23.833846188341937,Liwiti,Non-Government,EM.13898,-6.776012,39.178326,589,495,22,22,1084,0.8404074702886248,1.0,,,2.026252820917053,8.846863468634686,9.0
PS0202106,GENIUS KINGS',91,247.9231,A,Dar es Salaam,Dar es Salaam CC,46,45,1.022222222222222,1.0,29.226018472899927,Segerea,Non-Government,EM.14329,-6.840885,39.19353,316,306,20,20,622,0.9683544303797468,0.8760909090909091,,,2.1257253938545446,9.411575562700964,10.0
PS0202129,GOF,15,226.5333,B,Dar es Salaam,Dar es Salaam CC,9,6,1.5,1.0,28.16642011726415,Gongolamboto,Non-Government,EM.17012,-6.869877,39.1608317,48,55,5,6,103,1.1458333333333333,2.94155592469546,,,2.0333258904175877,8.96116504854369,9.0
PS0202103,HAVARD,156,249.5192,A,Dar es Salaam,Dar es Salaam CC,69,87,0.7931034482758621,1.0,27.733407955216872,Segerea,Non-Government,EM.14769,-6.8376166,39.2044483,618,579,24,24,1197,0.9368932038834952,0.9735879741588525,,,2.2158547854334927,8.856307435254804,9.0
PS0202096,HERITAGE,96,269.2813,A,Dar es Salaam,Dar es Salaam CC,47,49,0.9591836734693876,1.0,18.646353977542525,Kipawa,Non-Government,EM.14993,-6.8724741,39.1861092,325,346,17,17,671,1.0646153846153843,0.905130298596654,,,2.086519053147315,9.472429210134129,10.0
PS0202130,HIGHLIGHT,31,219.9677,B,Dar es Salaam,Dar es Salaam CC,18,13,1.3846153846153846,1.0,26.72808651476748,Gongolamboto,Non-Government,EM.17430,-6.5150192,39.0918,143,171,39,39,314,1.1958041958041958,1.2034874881216346,,,2.0118442138134838,8.98407643312102,8.0
PS0202094,HIGHMOUNT,172,218.2674,B,Dar es Salaam,Dar es Salaam CC,90,82,1.0975609756097562,0.9825581395348836,42.66627995212792,Gongolamboto,Non-Government,EM.13528,-6.8876917,39.1379716,594,591,21,25,1185,0.9949494949494948,2.9789498955659317,,,2.1654715498978527,9.234599156118144,9.0
PS0202102,ILALA ISLAMIC,102,195.0098,B,Dar es Salaam,Dar es Salaam CC,56,46,1.2173913043478262,1.0,34.98576021978769,Ilala,Non-Government,EM.14994,-6.8333689,39.2584916,460,458,23,42,918,0.9956521739130436,1.3857559494768796,,,2.0118964610076304,9.9640522875817,10.0
PS0202125,KIGOLU,28,197.2143,B,Dar es Salaam,Dar es Salaam CC,12,16,0.75,1.0,37.06283769677863,Ukonga,Non-Government,EM.17014,-6.8675765,39.169721,89,83,25,43,172,0.9325842696629212,1.2307003891821011,,,1.85176015837732,8.034883720930232,8.0
PS0202137,KING DAVID (2019),4,149.75,C,Dar es Salaam,Dar es Salaam CC,2,2,1.0,1.0,0.0,Ukonga,Non-Government,EM.18018,-5.861051,38.1696166,21,24,5,5,45,1.1428571428571428,0.9892857142857144,,,1.6996731711975952,8.333333333333334,8.0
PS0202110,KINGDOM HERITAGE,36,252.4722,A,Dar es Salaam,Dar es Salaam CC,14,22,0.6363636363636364,1.0,30.265226597073777,Kipawa,Non-Government,EM.14995,-6.8683784,39.1945106,140,108,19,19,248,0.7714285714285715,1.0,,,2.362252883089118,9.77016129032258,10.0
PS0202117,KIPAWA LIBERMANN,28,253.0714,A,Dar es Salaam,Dar es Salaam CC,19,9,2.111111111111111,1.0,26.99229859929438,Kipawa,Non-Government,EM.15221,-6.858068,39.202463,113,130,14,14,243,1.1504424778761062,1.7054191603104647,,,2.309518403508229,9.362139917695472,9.0
PS0202107,LOVENESS JUNIOR,20,211.3,B,Dar es Salaam,Dar es Salaam CC,5,15,0.3333333333333333,1.0,41.9036170873112,Kipawa,Non-Government,EM.15222,-6.8537184,39.2136772,79,80,14,23,159,1.0126582278481011,1.0,,,2.368005962166844,9.09433962264151,9.0
PS0202123,LUSASARO,42,268.0,A,Dar es Salaam,Dar es Salaam CC,18,24,0.75,1.0,15.387977764926667,Kisukulu,Non-Government,EM.16703,-6.48471029,39.1049214,232,206,29,31,438,0.8879310344827587,1.3406976744186043,,,2.144801888824029,8.602739726027398,8.0
PS0202077,MARKAZISLAMIC,46,256.3696,A,Dar es Salaam,Dar es Salaam CC,26,20,1.3,1.0,20.12267434225157,Ukonga,Non-Government,EM.10908,-6.8884081,39.1594196,212,181,19,19,393,0.8537735849056604,2.21624584717608,,,2.3687859172098107,9.78117048346056,10.0
PS0202115,MEMON,58,188.6897,B,Dar es Salaam,Dar es Salaam CC,28,30,0.9333333333333332,0.9310344827586208,41.40520135582352,Upanga Magharibi,Non-Government,EM.16704,-6.8019437,39.2759181,291,291,16,17,582,1.0,1.0,,,2.0915135042456496,9.402061855670103,9.0
PS0202139,MIKONGENI,167,233.8024,B,Dar es Salaam,Dar es Salaam CC,91,76,1.1973684210526316,0.994011976047904,41.39474036977108,Gongolamboto,Government,EM.14992,-6.8829,39.14412,817,835,28,28,1652,1.02203182374541,1.1881638540406578,,,2.0343892632106373,9.591404358353511,10.0
PS0202122,MONTESSORI MSIMBAZI,53,257.0755,A,Dar es Salaam,Dar es Salaam CC,25,28,0.8928571428571429,1.0,24.231652250891123,Ilala,Non-Government,EM.15947,-6.4923736,39.1525146,249,253,30,30,502,1.0160642570281124,2.404864427301698,,,1.9653915851834192,9.330677290836654,9.0
PS0202101,MOUNT ZION,23,200.6957,B,Dar es Salaam,Dar es Salaam CC,13,10,1.3,0.9565217391304348,38.12184785072564,Kisukulu,Non-Government,EM.14330,-6.8165874,39.18671115,89,84,17,19,173,0.9438202247191012,0.9624700459110828,,,1.8673293875832668,8.491329479768787,8.0
PS0202131,NEW GENERATION,19,231.6842,B,Dar es Salaam,Dar es Salaam CC,10,9,1.1111111111111112,1.0,29.833593188693783,Segerea,Non-Government,EM.17446,-6.8353712,39.2024883,131,165,23,23,296,1.2595419847328244,1.6122093023255817,,,2.083753001315033,8.199324324324325,8.0
PS0202092,PATMO JUNIOR,46,221.2826,B,Dar es Salaam,Dar es Salaam CC,21,25,0.84,1.0,39.82108386851289,Segerea,Non-Government,EM.10910,-6.8371283,39.1986966,140,150,21,21,290,1.0714285714285714,1.2983204134366924,,,2.084082703118181,10.20689655172414,10.0
PS0202071,QIBLATAIN,24,232.0417,B,Dar es Salaam,Dar es Salaam CC,12,12,1.0,1.0,32.19752405939866,Kariakoo,Non-Government,EM.11127,-6.483875,39.16359,110,98,9,9,208,0.8909090909090909,0.8102990033222591,,,2.171970446691616,10.615384615384617,11.0
PS0202098,QUEEN'S,9,234.2222,B,Dar es Salaam,Dar es Salaam CC,7,2,3.5,1.0,40.98797249058422,Kipawa,Non-Government,EM.14331,-6.8603311,39.1827222,32,63,11,11,95,1.96875,1.0,,,2.461132770745101,9.442105263157895,9.0
PS0202095,REMINANT,20,239.6,B,Dar es Salaam,Dar es Salaam CC,5,15,0.3333333333333333,1.0,35.252881087933794,Tabata,Non-Government,EM.11128,-6.8281112,39.2292697,93,109,14,14,202,1.1720430107526882,2.152713178294574,,,2.7967493068952494,9.549504950495049,10.0
PS0202126,RUGWA,25,187.12,B,Dar es Salaam,Dar es Salaam CC,14,11,1.2727272727272727,1.0,31.815505653690312,Gongolamboto,Non-Government,EM.17024,-6.87777917,36.01376717,68,81,17,17,149,1.1911764705882353,2.744648962148962,,,2.4107696444945272,9.798657718120806,10.0
PS0202109,SABISA,43,277.5349,A,Dar es Salaam,Dar es Salaam CC,24,19,1.263157894736842,1.0,0.0,Kisukulu,Non-Government,EM.14332,-6.837965,39.1784416,220,209,43,43,429,0.95,1.0,,,2.2405164674451874,8.032634032634032,7.0
PS0202124,ST JOSEPH BENEDICT COTTOLENGO,30,229.5333,B,Dar es Salaam,Dar es Salaam CC,20,10,2.0,1.0,34.302777665308035,Vingunguti,Non-Government,EM.16708,-6.8472416,39.2209666,198,202,27,27,400,1.02020202020202,1.9784481179830016,,,2.050352103908009,9.4675,9.0
PS0202114,ST SCHOLASTICA,64,279.9219,A,Dar es Salaam,Dar es Salaam CC,26,38,0.6842105263157895,1.0,0.0,Kipawa,Non-Government,EM.15224,-6.8889368,39.1896256,345,299,29,32,644,0.8666666666666667,2.770653377630122,,,2.274362932043453,8.897515527950311,9.0
PS0202080,ST THERESE OF LISIEUX,76,261.4474,A,Dar es Salaam,Dar es Salaam CC,32,44,0.7272727272727273,1.0,23.86134305596,Ukonga,Non-Government,EM.10731,-6.877327,39.176636,265,265,20,20,530,1.0,1.0,,,2.067342570639608,9.20754716981132,9.0
PS0202072,ST. AUGUSTINE'S,93,217.2151,B,Dar es Salaam,Dar es Salaam CC,48,45,1.0666666666666669,1.0,37.17894728587265,Buguruni,Non-Government,EM.11614,-6.8285277,39.500971,302,343,22,22,645,1.1357615894039734,2.963455149501661,,,1.8397032756777685,9.147286821705428,9.0
PS0202079,ST. JOSEPH'S MILLENIUM,43,275.7674,A,Dar es Salaam,Dar es Salaam CC,22,21,1.0476190476190477,1.0,12.582773534970014,Kivukoni,Non-Government,EM.11129,-6.818532,39.2880053,158,175,26,26,333,1.1075949367088609,1.0,,,2.1516637013508264,9.063063063063064,9.0
PS0202044,ST-MARY'S-INT-,77,255.0909,A,Dar es Salaam,Dar es Salaam CC,39,38,1.0263157894736843,1.0,26.992298599294376,Tabata,Non-Government,EM.10277,-6.826862,39.2204838,271,272,18,18,543,1.003690036900369,0.912448843504893,,,2.253467983331648,9.589318600368324,10.0
PS0202113,STMAXIMILIAN,131,248.5649,A,Dar es Salaam,Dar es Salaam CC,68,63,1.0793650793650793,1.0,28.30755329018415,Segerea,Non-Government,EM.14591,-6.846347,39.1787513,484,522,18,18,1006,1.078512396694215,1.0,,,2.0875063899962747,9.45924453280318,9.0
PS0202127,TIGOHANE,47,261.1702,A,Dar es Salaam,Dar es Salaam CC,29,18,1.6111111111111112,1.0,21.27252620655788,Kisukulu,Non-Government,EM.17026,-6.8155853,39.1112555,257,277,33,33,534,1.0778210116731517,3.309424141749722,,,2.163657315973305,9.249063670411983,9.0
PS0202083,TUSIIME,221,262.3756,A,Dar es Salaam,Dar es Salaam CC,118,103,1.145631067961165,1.0,22.06392387955501,Segerea,Non-Government,EM.10419,-6.8425283,39.2000466,702,713,11,11,1415,1.0156695156695157,1.1716630035253204,,,2.361640997299835,9.464310954063604,10.0
PS0202033,UHURU-WASICHANA,97,232.9588,B,Dar es Salaam,Dar es Salaam CC,97,0,,1.0,32.485796294511715,Gerezani,Government,EM.145,-6.82347443,39.279765,0,748,26,26,748,,1.889604473666096,4380282,5856,2.0849353749563293,9.568181818181818,10.0
PS0205001,ALGEBRA ISLAMIC,120,245.3417,A,Dar es Salaam,Kigamboni MC,59,61,0.9672131147540984,1.0,29.375679661167933,Kibada,Non-Government,EM.15955,-6.87642,39.344549,532,515,34,34,1047,0.9680451127819548,1.0,,,2.3888578249704366,9.15186246418338,9.0
PS0205002,AMKA,25,264.56,A,Dar es Salaam,Kigamboni MC,10,15,0.6666666666666666,1.0,19.416451787079943,Mjimwema,Non-Government,EM.15225,-6.82679,39.311131,112,106,15,16,218,0.9464285714285714,2.4537087703298366,,,2.2071609893769697,9.0,9.0
PS0205003,BETHANIA,47,221.8085,B,Dar es Salaam,Kigamboni MC,20,27,0.7407407407407407,1.0,31.792291104184937,Vijibweni,Non-Government,EM.14999,-6.8712533,39.3292975,195,173,31,31,368,0.8871794871794871,1.0512231480553365,,,2.4121620011617733,9.08695652173913,9.0
PS0205027,BRAINSTORM,46,231.3478,B,Dar es Salaam,Kigamboni MC,22,24,0.9166666666666666,1.0,32.147850875700485,Somangila,Non-Government,EM.17609,-5.9,32.9,252,308,28,28,560,1.2222222222222223,1.0,,,1.945219152440261,8.542857142857143,8.0
PS0205006,CAPACITY BUILDING,45,238.7556,B,Dar es Salaam,Kigamboni MC,24,21,1.1428571428571428,1.0,34.651931519392846,Vijibweni,Non-Government,EM.15956,-6.8539751,39.339986,222,194,21,28,416,0.8738738738738738,1.667787174066244,,,2.3551951812357244,9.158653846153848,9.0
PS0205010,DAARUL-ARQAM,41,250.6098,A,Dar es Salaam,Kigamboni MC,22,19,1.1578947368421053,1.0,27.803837699835366,Somangila,Non-Government,EM.14592,-6.9470187,39.4705503,167,178,16,16,345,1.065868263473054,1.0,,,2.207135513502341,9.431884057971017,10.0
PS0205009,EXCEL,43,289.2326,A,Dar es Salaam,Kigamboni MC,21,22,0.9545454545454546,1.0,0.0,Somangila,Non-Government,EM.17448,-6.875979,39.40495,276,317,31,31,593,1.1485507246376812,0.8770952303510445,,,1.9974418374146423,9.136593591905564,9.0
PS0205012,FRAY LUIS AMIGO,81,242.5556,A,Dar es Salaam,Kigamboni MC,46,35,1.3142857142857145,1.0,32.45786548049746,Tungi,Non-Government,EM.12414,-6.8365365,39.324775,419,398,33,36,817,0.9498806682577564,5.668604651162791,,,2.2225249115481573,9.145654834761322,9.0
PS0205011,GOLDLAND,34,253.7647,A,Dar es Salaam,Kigamboni MC,16,18,0.8888888888888888,1.0,24.15960862708336,Mjimwema,Non-Government,EM.17367,-6.8696342,39.3405451,170,151,19,20,321,0.888235294117647,1.0192121142050794,,,2.350574122913524,9.317757009345794,9.0
PS0205015,GRACE,49,259.0408,A,Dar es Salaam,Kigamboni MC,31,18,1.7222222222222223,1.0,24.08097867496647,Mjimwema,Non-Government,EM.17031,-6.8684142,39.345958,214,241,20,25,455,1.1261682242990654,2.140419765872642,,,2.2349541214820974,8.975824175824176,9.0
PS0205054,GREENLAND,10,237.9,B,Dar es Salaam,Kigamboni MC,4,6,0.6666666666666666,1.0,29.271402426258977,Kisarawe II,Non-Government,EM.17821,-6.95983,39.36138,48,55,10,10,103,1.1458333333333333,1.0199673787225088,,,2.135127831052392,9.54368932038835,9.0
PS0205008,HANNAH BENNIE,24,293.9583,A,Dar es Salaam,Kigamboni MC,10,14,0.7142857142857143,1.0,0.0,Mjimwema,Non-Government,EM.17389,-6.8666557,39.3657867,214,230,21,21,444,1.074766355140187,1.0063357185450208,,,2.276173639995944,8.461711711711711,9.0
PS0205050,HOLLINESS,13,233.3846,B,Dar es Salaam,Kigamboni MC,5,8,0.625,1.0,29.06862926077856,Vijibweni,Non-Government,EM.17533,-6.8508017,39.3160329,99,100,25,25,199,1.0101010101010102,3.151303735024665,,,1.9361151059511763,8.798994974874372,9.0
PS0205017,KIGAMBONI ISLAMIC,21,254.381,A,Dar es Salaam,Kigamboni MC,14,7,2.0,1.0,17.539225556066494,Kigamboni,Non-Government,EM.17549,-6.827202,39.306399,123,144,24,24,267,1.170731707317073,1.4272302546753406,,,1.9628541372438864,9.03370786516854,9.0
PS0205028,MAHENGE,9,193.1111,B,Dar es Salaam,Kigamboni MC,3,6,0.5,1.0,33.939033938687146,Tungi,Non-Government,EM.13532,-6.836198,39.321264,31,33,11,11,64,1.064516129032258,1.1936507936507936,,,2.356631268887859,8.90625,8.0
PS0205036,MALAIKA,20,230.1,B,Dar es Salaam,Kigamboni MC,10,10,1.0,1.0,37.24431793911656,Tungi,Non-Government,EM.17589,-6.8310733,39.3417366,146,128,15,15,274,0.8767123287671232,0.785494931425164,,,2.035515029244424,8.13138686131387,8.0
PS0205031,MEKA,56,234.8929,B,Dar es Salaam,Kigamboni MC,33,23,1.434782608695652,1.0,33.06368235752849,Somangila,Non-Government,EM.15958,-6.82679,39.311131,211,259,28,43,470,1.2274881516587677,1.0,,,2.2082041766627225,9.202127659574469,9.0
PS0205042,SANTA LUKAS,18,235.3889,B,Dar es Salaam,Kigamboni MC,6,12,0.5,1.0,39.88892757658291,Somangila,Non-Government,EM.17707,-6.9687216,39.4526055,93,96,19,47,189,1.032258064516129,1.0,,,2.167168898642968,9.328042328042327,9.0
PS0205052,ST JOSEPH THE WORKER,74,265.2973,A,Dar es Salaam,Kigamboni MC,37,37,1.0,1.0,19.52918515381777,Kibada,Non-Government,EM.16712,-6.897816,39.340565,333,325,37,41,658,0.975975975975976,1.0,,,2.071633165418613,9.361702127659576,9.0
PS0203141,ABEL MEMORIAL,17,232.4706,B,Dar es Salaam,Kinondoni MC,10,7,1.4285714285714286,1.0,41.34856892625348,Bunju,Non-Government,EM.17401,-6.6900786,39.0919096,81,76,14,14,157,0.9382716049382716,0.8083532733697042,,,1.8109569552914884,9.452229299363058,10.0
PS0203101,AL - IRSHAAD,9,234.4444,B,Dar es Salaam,Kinondoni MC,4,5,0.8,1.0,40.98347303155743,Msasani,Non-Government,EM.11623,-6.7459271,39.275527,37,39,6,6,76,1.054054054054054,0.9360763267740012,,,2.135757762209133,8.93421052631579,9.0
PS0203015,ALI HASSAN MWINYI ELITE,46,289.587,A,Dar es Salaam,Kinondoni MC,16,30,0.5333333333333333,1.0,0.0,Kawe,Non-Government,EM.13533,-6.8583333,39.3194444,233,200,29,29,433,0.8583690987124464,1.0,,,1.9971337781619023,9.609699769053115,10.0
PS0203111,ANSWAAR,41,286.2195,A,Dar es Salaam,Kinondoni MC,20,21,0.9523809523809524,1.0,0.0,Mwananyamala,Non-Government,EM.10734,-6.81098,39.280642,207,204,27,27,411,0.9855072463768116,1.0039705048213272,,,1.8540944226099445,9.316301703163017,9.0
PS0203126,ATLAS MADALE,286,223.035,B,Dar es Salaam,Kinondoni MC,155,131,1.183206106870229,0.9755244755244756,47.1033566730618,Wazo,Non-Government,EM.17032,-6.7074125,39.138833,678,748,24,26,1426,1.103244837758112,1.0,,,2.2078120889299475,9.832398316970547,10.0
PS0203045,BAHARI,77,242.4545,A,Dar es Salaam,Kinondoni MC,37,40,0.925,0.987012987012987,36.12640905584208,Kunduchi,Non-Government,EM.10912,-6.6623061,39.2045267,283,256,26,30,539,0.9045936395759716,1.0244990499166864,,,2.151600919303794,9.419294990723564,9.0
PS0203016,BAJEVIRO,38,203.1053,B,Dar es Salaam,Kinondoni MC,15,23,0.6521739130434783,1.0,39.27909934595449,Kawe,Non-Government,EM.15001,-6.8227,39.291,205,238,37,37,443,1.1609756097560977,1.1020928916439636,,,2.1302941253856327,9.724604966139957,9.0
PS0203046,BRIGHT HOPE,31,236.4194,B,Dar es Salaam,Kinondoni MC,12,19,0.631578947368421,0.967741935483871,42.38683900348782,Kunduchi,Non-Government,EM.13534,-6.6632599,39.2081609,88,79,14,14,167,0.8977272727272727,1.6320759261935736,,,2.5614328029895805,8.479041916167665,8.0
PS0203128,C.W KISARO,28,218.1786,B,Dar es Salaam,Kinondoni MC,11,17,0.6470588235294118,1.0,29.221558374803365,Wazo,Non-Government,EM.17034,-6.6829245,39.144952,141,127,30,30,268,0.900709219858156,1.27181059202632,,,2.585417038954299,9.384328358208956,9.0
PS0203047,CANOSSA,96,261.0,A,Dar es Salaam,Kinondoni MC,53,43,1.2325581395348837,1.0,23.35836582732756,Kunduchi,Non-Government,EM.12416,-6.6561733,39.1835783,308,377,16,16,685,1.224025974025974,1.0,,,2.167915161110389,9.854014598540148,10.0
PS0203073,CITY,18,207.9444,B,Dar es Salaam,Kinondoni MC,9,9,1.0,0.9444444444444444,42.23292307746016,Makongo,Non-Government,EM.11624,-6.549817,39.123884,61,66,14,14,127,1.0819672131147542,1.706543249652005,,,1.820822514906179,9.645669291338583,9.0
PS0203004,DAYSTAR,66,242.697,A,Dar es Salaam,Kinondoni MC,35,31,1.1290322580645162,1.0,34.9042605773403,Bunju,Non-Government,EM.14595,-6.6349888,39.1634988,196,176,19,19,372,0.8979591836734694,1.0,,,2.2349867172052598,9.685483870967742,9.5
PS0203062,DEBUGENE,21,237.7619,B,Dar es Salaam,Kinondoni MC,10,11,0.9090909090909092,1.0,35.109377199644804,Mabwepande,Non-Government,EM.13899,-6.810984,39.280642,97,127,20,20,224,1.309278350515464,0.9958129841816508,,,1.9461367327086652,9.272321428571429,9.0
PS0203030,DEEP SEA,50,275.12,A,Dar es Salaam,Kinondoni MC,22,28,0.7857142857142857,1.0,11.708560970503592,Kigogo,Non-Government,EM.15960,-6.810984,39.280642,262,257,25,25,519,0.9809160305343512,0.9185702080105416,,,1.9021196166421463,8.732177263969172,8.0
PS0203103,DRIVE IN,31,233.4516,B,Dar es Salaam,Kinondoni MC,14,17,0.8235294117647058,1.0,28.58824900670747,Msasani,Non-Government,EM.13535,-6.772795,39.266496,117,86,23,23,203,0.7350427350427351,1.0,,,1.9818267246755847,8.793103448275861,9.0
PS0203094,EAST AFRICA,36,209.75,B,Dar es Salaam,Kinondoni MC,14,22,0.6363636363636364,0.9722222222222222,50.89217905424063,Mikocheni,Non-Government,EM.13900,-6.752462,39.239342,136,106,15,15,242,0.7794117647058824,1.0,,,2.404394157140605,8.87190082644628,9.0
PS0203048,EDUCATION PLUS,53,244.9811,A,Dar es Salaam,Kinondoni MC,24,29,0.8275862068965517,1.0,35.93535788885667,Kunduchi,Non-Government,EM.13536,-6.645746,39.176311,215,180,26,26,395,0.8372093023255814,1.0289242754423562,,,2.476293626244203,10.240506329113924,12.0
PS0203144,ELESIA CHRISTABEL,23,221.1304,B,Dar es Salaam,Kinondoni MC,16,7,2.2857142857142856,1.0,36.6149528629616,Wazo,Non-Government,EM.17454,-6.7076566,39.1449116,72,104,18,18,176,1.4444444444444444,1.3383271598438462,,,2.187898428886489,9.755681818181818,11.0
PS0203150,ERASTUS,9,218.3333,B,Dar es Salaam,Kinondoni MC,3,6,0.5,1.0,33.90634796168359,Mabwepande,Non-Government,EM.17801,-6.608028,39.093295,87,75,15,15,162,0.8620689655172413,0.9151223725275132,,,1.8133865211812812,8.395061728395062,8.0
PS0203005,FAITH,19,177.4737,C,Dar es Salaam,Kinondoni MC,9,10,0.9,1.0,29.95841993843728,Bunju,Non-Government,EM.17035,-6.6163108,39.114986,64,44,7,9,108,0.6875,2.8967331118493904,,,2.75994274408316,9.77777777777778,9.5
PS0203017,FEZA,108,255.6481,A,Dar es Salaam,Kinondoni MC,54,54,1.0,1.0,25.41071101291931,Kawe,Non-Government,EM.10913,-6.766092,39.255588,495,498,13,13,993,1.006060606060606,0.9066077817531304,,,2.0477604962174456,8.685800604229607,9.0
PS0203063,GODEN,8,237.25,B,Dar es Salaam,Kinondoni MC,5,3,1.6666666666666667,1.0,29.875,Mabwepande,Non-Government,EM.14770,-6.926967,39.157046,67,61,12,12,128,0.9104477611940298,1.0,,,1.8915771104672812,8.5078125,9.0
PS0203032,GONZAGA,56,253.6607,A,Dar es Salaam,Kinondoni MC,25,31,0.8064516129032258,1.0,25.22642955170818,Kigogo,Non-Government,EM.13052,-6.819709,39.235109,243,189,19,19,432,0.7777777777777778,1.7132930815911984,,,2.011241075450739,9.53472222222222,10.0
PS0203104,GOOD SAMARITAN,39,204.8974,B,Dar es Salaam,Kinondoni MC,22,17,1.2941176470588236,0.9743589743589745,46.881150703195765,Msasani,Non-Government,EM.10037,-6.756009,39.279065,164,142,13,13,306,0.8658536585365854,1.007840028188865,,,2.156555731764048,9.248366013071896,9.0
PS0203006,GOSHENI,15,235.2667,B,Dar es Salaam,Kinondoni MC,12,3,4.0,1.0,36.98127904764788,Bunju,Non-Government,EM.13901,-6.4633194,39.9017755,62,78,13,13,140,1.2580645161290325,1.1099728468994772,,,2.043706117297091,8.457142857142857,8.5
PS0203070,HAZINA,42,262.5476,A,Dar es Salaam,Kinondoni MC,23,19,1.2105263157894737,1.0,22.267510275935404,Magomeni,Non-Government,EM.13902,-6.800827,39.2604392,100,94,15,15,194,0.94,0.9710511800798368,,,2.120562423766799,9.943298969072163,10.0
PS0203089,HOPE AND JOY,71,237.4648,B,Dar es Salaam,Kinondoni MC,29,42,0.6904761904761905,1.0,33.08665839724605,Mbweni,Non-Government,EM.11135,-6.5811427,39.1271642,330,284,25,25,614,0.8606060606060606,4.55251937984496,,,2.306433326823963,9.281758957654723,9.0
PS0203130,KELAND,46,256.0652,A,Dar es Salaam,Kinondoni MC,23,23,1.0,1.0,32.19428014646916,Wazo,Non-Government,EM.13537,-6.6995231,39.1852567,153,144,12,14,297,0.9411764705882352,0.8911297813905471,,,1.4366494796092018,9.996632996632997,11.0
PS0203084,KILIMANI,98,270.7551,A,Dar es Salaam,Kinondoni MC,52,46,1.1304347826086956,1.0,17.25552161144027,Mbezi Juu,Non-Government,EM.14335,-6.72703,39.203553,595,665,36,57,1260,1.1176470588235294,1.0,,,2.0808723181479367,8.924603174603174,9.0
PS0203131,KINGDOM,33,251.303,A,Dar es Salaam,Kinondoni MC,18,15,1.2,1.0,27.459200471641225,Wazo,Non-Government,EM.16713,-6.6693925,39.1725282,142,145,22,22,287,1.0211267605633805,1.3737767936050749,,,2.0430422854259787,9.156794425087108,9.0
PS0203154,KWANZA,8,230.375,B,Dar es Salaam,Kinondoni MC,4,4,1.0,1.0,29.875,Mikocheni,Non-Government,EA.12,-6.769312,39.2482859,40,53,5,6,93,1.325,1.1850161298088495,,,2.244815200120411,8.580645161290322,8.0
PS0203142,LACHISH,15,220.0,B,Dar es Salaam,Kinondoni MC,8,7,1.1428571428571428,1.0,34.32797692844715,Wazo,Non-Government,EM.17403,-6.6734264,39.1726836,35,30,7,7,65,0.8571428571428571,9.27906976744186,,,2.37372201679509,9.507692307692308,10.0
PS0203020,LIBERMANN,113,278.8319,A,Dar es Salaam,Kinondoni MC,56,57,0.9824561403508772,1.0,9.605421698619033,Kawe,Non-Government,EM.14336,-6.710732,39.221448,517,448,22,22,965,0.8665377176015474,0.9201452254378848,,,2.146215312479453,9.267357512953367,9.0
PS0203143,LIVINGSTONE,8,222.125,B,Dar es Salaam,Kinondoni MC,5,3,1.6666666666666667,1.0,28.926344366986644,Wazo,Non-Government,EM.17437,-6.6853247,39.1495444,63,53,15,15,116,0.8412698412698413,1.5140142789642548,,,2.1667104937791195,9.060344827586206,9.0
PS0203007,LOCEE,11,286.7273,A,Dar es Salaam,Kinondoni MC,2,9,0.2222222222222222,1.0,0.0,Bunju,Non-Government,EM.16714,-6.6240773,39.1548031,60,60,12,12,120,1.0,0.9860465116279072,,,2.200362975107112,8.591666666666667,8.0
PS0203148,MAARIFA ISLAMIC,25,247.0,A,Dar es Salaam,Kinondoni MC,10,15,0.6666666666666666,1.0,27.87195005736054,Wazo,Non-Government,EM.17630,-6.6656614,39.1549031,136,146,20,20,282,1.0735294117647058,2.2507399577167018,,,2.0433933703456453,9.202127659574469,9.0
PS0203051,MAKINI,46,217.7609,B,Dar es Salaam,Kinondoni MC,26,20,1.3,1.0,37.36865348117617,Kunduchi,Non-Government,EM.14771,-6.696699,39.225263,170,161,17,17,331,0.9470588235294116,1.0,,,2.1418341590050485,9.15105740181269,9.0
PS0203096,MIKOCHENI ISLAMIC,43,232.186,B,Dar es Salaam,Kinondoni MC,20,23,0.8695652173913043,1.0,33.836590939766594,Mikocheni,Non-Government,EM.13904,-6.757466,39.244444,188,210,22,27,398,1.1170212765957446,0.9982110912343468,,,2.064080674191288,9.153266331658292,9.0
PS0203145,MILESTONES,28,245.9643,A,Dar es Salaam,Kinondoni MC,11,17,0.6470588235294118,1.0,29.1810343317088,Kunduchi,Non-Government,EM.17567,-6.6442735,39.1976099,218,195,13,13,413,0.8944954128440367,1.0,,,2.020789648848738,8.104116222760291,8.0
PS0203008,MOGA,101,250.1683,A,Dar es Salaam,Kinondoni MC,49,52,0.9423076923076924,1.0,31.563744023339574,Bunju,Non-Government,EM.14596,-6.6059814,39.0810274,294,318,19,19,612,1.0816326530612246,1.0,,,2.1425675012606358,9.61111111111111,10.0
PS0203133,MOTHER OF MERCY,61,275.5574,A,Dar es Salaam,Kinondoni MC,25,36,0.6944444444444444,1.0,7.587237866750596,Wazo,Non-Government,EM.15002,-6.901727,39.15831,327,371,16,16,698,1.1345565749235471,1.2915257531783575,,,2.079580380626432,9.133237822349573,9.0
PS0203092,MOUNT EVEREST,106,245.3019,A,Dar es Salaam,Kinondoni MC,49,57,0.8596491228070176,1.0,32.519325404848125,Mbweni,Non-Government,EM.13538,-6.6200584,39.1437995,351,349,23,28,700,0.9943019943019944,1.0204369759434448,,,2.022215394571216,9.291428571428572,9.0
PS0203087,MOUNT KIBO,106,257.9057,A,Dar es Salaam,Kinondoni MC,47,59,0.7966101694915254,1.0,21.925601089469986,Mbezi Juu,Non-Government,EM.11144,-6.725983,39.206288,412,438,21,21,850,1.0631067961165048,1.0,,,2.1615069073973934,9.462352941176473,9.0
PS0203140,MOUNT SINAI,17,242.3529,A,Dar es Salaam,Kinondoni MC,6,11,0.5454545454545454,1.0,28.553605569235216,Bunju,Non-Government,EM.17372,-6.6294587,39.1211306,123,138,22,22,261,1.1219512195121952,0.8044483208019014,,,2.476524740824204,9.597701149425289,9.0
PS0203108,MSASANI ISLAMIC,53,254.0189,A,Dar es Salaam,Kinondoni MC,29,24,1.2083333333333333,1.0,26.886871069067453,Msasani,Non-Government,EM.14772,-6.7713031,39.2788951,205,211,24,24,416,1.0292682926829269,1.0,,,1.935093167699559,9.685096153846152,10.0
PS0203043,MTAMBANI ISLAMIC,44,218.5909,B,Dar es Salaam,Kinondoni MC,16,28,0.5714285714285714,1.0,32.75110598410103,Kinondoni,Non-Government,EM.11625,-6.787458,39.263828,152,129,15,15,281,0.8486842105263158,6.3819220830848735,,,2.444308841201101,9.775800711743772,10.0
PS0203024,MWALIMU JULIUS KAMBARAGE NYERERE,46,246.7174,A,Dar es Salaam,Kinondoni MC,17,29,0.5862068965517241,1.0,28.45775896602928,Kawe,Non-Government,EM.11148,-6.724477,39.222109,145,142,24,24,287,0.9793103448275862,0.8936304909560725,,,2.2523215141031407,9.177700348432056,9.0
PS0203093,NEW ERA,15,188.9333,B,Dar es Salaam,Kinondoni MC,4,11,0.3636363636363636,1.0,52.0513741946892,Mbweni,Non-Government,EM.16715,-6.6121488,39.137148,68,62,13,13,130,0.9117647058823528,0.9521326474249447,,,2.295300060311049,9.907692307692308,10.0
PS0203010,NEW HAZINA,5,248.2,A,Dar es Salaam,Kinondoni MC,2,3,0.6666666666666666,1.0,29.271402426258977,Bunju,Non-Government,EM.17033,-6.6210779,39.1313738,20,13,3,4,33,0.65,1.0,,,1.8060199303941016,9.363636363636363,9.0
PS0203135,NURU NJEMA,9,278.4444,A,Dar es Salaam,Kinondoni MC,6,3,2.0,1.0,0.0,Wazo,Non-Government,EM.17037,-6.632659,39.132874,334,334,32,32,668,1.0,1.3935903553679052,,,1.6436362230448212,8.236526946107784,8.0
PS0203109,OYSTERBAY,160,234.5687,B,Dar es Salaam,Kinondoni MC,87,73,1.1917808219178083,1.0,31.487739080511066,Msasani,Government,EM.810,-6.7761117,39.2776408,564,662,42,42,1226,1.173758865248227,0.969062381901903,,,2.160861889624885,9.82300163132137,10.0
PS0203110,PENINSULA,35,217.7714,B,Dar es Salaam,Kinondoni MC,20,15,1.3333333333333333,1.0,35.45522758727274,Msasani,Non-Government,EM.12417,-6.81633,39.27668,152,149,22,50,301,0.9802631578947368,1.0,,,1.7385671239325031,8.245847176079733,8.0
PS0203055,PRINCES GATE,15,250.4,A,Dar es Salaam,Kinondoni MC,7,8,0.875,1.0,26.422444163164684,Kunduchi,Non-Government,EM.17295,-6.6457271,39.198107,40,40,10,10,80,1.0,0.9266472868217054,,,2.470323865407125,9.85,10.0
PS0203146,REDAVE,14,211.1429,B,Dar es Salaam,Kinondoni MC,5,9,0.5555555555555556,0.9285714285714286,47.83274964682158,Mabwepande,Non-Government,EM.17573,-6.0661223,39.8761202,100,82,17,17,182,0.82,1.5764852035029868,,,2.0500323246970678,8.659340659340659,8.0
PS0203025,RIGHTWAY,60,261.9333,A,Dar es Salaam,Kinondoni MC,37,23,1.608695652173913,1.0,24.615420796163978,Kawe,Non-Government,EM.14337,-6.715568,39.213195,224,245,17,17,469,1.09375,1.0,,,2.1432633884931658,8.925373134328359,9.0
PS0203057,ROYAL ELITE,104,267.4327,A,Dar es Salaam,Kinondoni MC,48,56,0.8571428571428571,1.0,19.76045510451366,Kunduchi,Non-Government,EM.15961,-6.6943501,39.2198509,543,560,20,20,1103,1.0313075506445673,1.0,,,1.9095185366897367,8.659111514052585,8.0
PS0203118,SHEIKHAT HISSA,46,217.0435,B,Dar es Salaam,Kinondoni MC,22,24,0.9166666666666666,0.9782608695652174,48.287444027499376,Mzimuni,Non-Government,EM.11151,-6.810984,39.280642,171,165,14,14,336,0.9649122807017544,1.0,,,2.107241640810669,9.211309523809524,9.0
PS0203097,SHREE HINDU MANDAL,49,225.4286,B,Dar es Salaam,Kinondoni MC,25,24,1.0416666666666667,1.0,34.1423791090875,Mikocheni,Non-Government,EM.10735,-6.7675382,39.2530425,251,242,13,13,493,0.9641434262948207,0.9851162790697672,,,1.9141002407551824,8.28397565922921,8.0
PS0203011,SIYA MODERN,9,250.6667,A,Dar es Salaam,Kinondoni MC,5,4,1.25,1.0,24.84044765108256,Bunju,Non-Government,EM.12418,-6.6333208,39.1158553,74,76,15,15,150,1.027027027027027,2.2110007886170675,,,1.531361050394931,9.04,9.0
PS0203058,SKY,39,236.7692,B,Dar es Salaam,Kinondoni MC,14,25,0.56,1.0,42.52340501067045,Kunduchi,Non-Government,EM.13906,-6.192354,39.208328,224,184,26,26,408,0.8214285714285714,1.0,,,2.3320096344194186,9.553921568627452,10.0
PS0203026,ST. ALOYSIUS,29,258.0345,A,Dar es Salaam,Kinondoni MC,29,0,,1.0,25.568206908550128,Kawe,Non-Government,EM.13539,-6.711388,39.220253,0,239,16,16,239,,1.0,,,2.057037557227208,9.167364016736402,10.0
PS0203077,ST. COLUMBAS,30,267.9,A,Dar es Salaam,Kinondoni MC,13,17,0.7647058823529411,1.0,17.925,Makongo,Non-Government,EM.13907,-6.7511845,39.1854679,91,92,17,17,183,1.010989010989011,1.0085679314565483,,,2.420845204607923,9.300546448087433,9.0
PS0203098,ST. FLORENCE ACADEMY,104,240.1538,B,Dar es Salaam,Kinondoni MC,52,52,1.0,1.0,35.17960048011956,Mikocheni,Non-Government,EM.9338,-6.7672829,39.25304069,335,359,25,25,694,1.0716417910447762,1.0,,,2.1914394348998387,8.959654178674352,9.0
PS0203059,ST. JOSEPH,40,208.875,B,Dar es Salaam,Kinondoni MC,22,18,1.2222222222222223,0.9,55.891803611419625,Kunduchi,Non-Government,EM.10421,-6.6963867,39.2070484,115,124,13,14,239,1.0782608695652174,0.99452804377565,,,1.9429008943937875,9.322175732217572,9.0
PS0203088,ST. MARYS MBEZI BEACH,116,256.3966,A,Dar es Salaam,Kinondoni MC,55,61,0.9016393442622952,0.9913793103448276,31.51121467634996,Mbezi Juu,Non-Government,EM.10736,-6.721155,39.204763,532,562,24,24,1094,1.056390977443609,1.0,,,2.219141237035519,9.50091407678245,10.0
PS0203012,STAMARIA SALOME,15,187.6667,B,Dar es Salaam,Kinondoni MC,12,3,4.0,0.8666666666666667,43.08131845707603,Bunju,Non-Government,EM.14773,-6.782345,39.267468,59,57,10,10,116,0.9661016949152542,1.1242424242424245,,,2.4458918698992,8.905172413793103,9.0
PS0203044,SUNRAY,29,246.8276,A,Dar es Salaam,Kinondoni MC,17,12,1.4166666666666667,1.0,28.991621549943098,Kinondoni,Non-Government,EM.13540,-6.7851171,39.2708954,128,144,15,15,272,1.125,0.9725316746070156,,,1.9094867650450875,8.625,8.0
PS0203099,SUNRISE,132,241.4091,A,Dar es Salaam,Kinondoni MC,63,69,0.9130434782608696,1.0,36.95868253707149,Mikocheni,Non-Government,EM.13541,-6.6774246,39.26099,422,398,18,20,820,0.943127962085308,1.0,,,1.9294116686880185,8.892682926829268,9.0
PS0203067,TEJ,17,166.7059,C,Dar es Salaam,Kinondoni MC,9,8,1.125,0.8823529411764706,38.66276876507055,Mabwepande,Non-Government,EM.14597,-6.6054613,39.1061132,28,31,4,4,59,1.1071428571428572,4.683333333333334,,,1.7201511127274949,9.915254237288137,10.0
PS0203068,TUWAPENDE WATOTO,66,242.2424,A,Dar es Salaam,Kinondoni MC,36,30,1.2,1.0,34.86931689594328,Mabwepande,Non-Government,EM.15962,-6.6319903,39.0926384,275,310,23,23,585,1.1272727272727272,1.2200545191242866,,,1.6674160051175857,8.615384615384615,8.0
PS0203137,UWATA MADALE,50,229.28,B,Dar es Salaam,Kinondoni MC,26,24,1.0833333333333333,1.0,32.619478843169766,Wazo,Non-Government,EM.15003,-6.700744,39.126691,243,240,28,28,483,0.9876543209876544,3.8523195247562367,,,2.1712396062519197,9.668737060041408,10.0
PS0203029,VALENTINE ELITE,25,192.28,B,Dar es Salaam,Kinondoni MC,9,16,0.5625,0.92,50.050298700407374,Kawe,Non-Government,EM.11631,-6.7210001,39.2130637,94,90,15,18,184,0.9574468085106383,1.958139534883721,,,2.494079710260724,9.048913043478262,9.0
PS0206077,AL-HIJRA ISLAMIC,35,255.9143,A,Dar es Salaam,Temeke MC,20,15,1.3333333333333333,1.0,26.114264223185906,Yombo vituka,Non-Government,EM.17922,-6.8771351,39.2363831,223,301,25,26,524,1.3497757847533631,1.0,,,2.5849248969364083,9.557251908396946,9.0
PS0206085,AL-IHYAU DIN,35,222.4286,B,Dar es Salaam,Temeke MC,20,15,1.3333333333333333,1.0,32.43597775713297,Kijichi,Non-Government,EM.18061,-6.885035,39.278902,136,123,24,24,259,0.9044117647058824,4.201587301587302,,,2.489458402843494,9.420849420849422,9.0
PS0206110,AL-MUSTAQIIM,19,190.9474,B,Dar es Salaam,Temeke MC,9,10,0.9,1.0,39.13546772168456,Miburani,Non-Government,EM.18182,-6.854557,39.260679,51,58,9,11,109,1.1372549019607845,1.6116279069767443,,,2.464220866606913,10.10091743119266,10.0
PS0206075,ALQAADIRIYYA,47,197.8511,B,Dar es Salaam,Temeke MC,25,22,1.1363636363636365,0.9787234042553192,41.38817653185461,Miburani,Non-Government,EM.12420,-6.8477885,39.2667466,162,191,16,19,353,1.1790123456790125,5.016279069767441,,,2.179297116679232,9.875354107648723,10.0
PS0206105,ANLEX,34,254.5882,A,Dar es Salaam,Temeke MC,17,17,1.0,1.0,24.15960862708336,Kijichi,Non-Government,EM.15228,-6.8780071,39.2896482,206,198,27,27,404,0.9611650485436892,1.0,,,2.191279190280396,8.834158415841584,8.0
PS0206095,ANNETTE-B,28,238.6071,B,Dar es Salaam,Temeke MC,14,14,1.0,1.0,33.28701714188404,Makangarawe,Non-Government,EM.13056,-6.8825496,39.2508,80,76,12,12,156,0.95,1.339626082991336,,,2.326304926016792,9.237179487179487,9.0
PS0206134,ASSWIDDIQ,95,276.6842,A,Dar es Salaam,Temeke MC,46,49,0.9387755102040816,1.0,8.57769848836742,Toangoma,Non-Government,EM.14774,-6.9459983,39.2919616,393,426,28,28,819,1.083969465648855,1.0,,,2.2072980317805597,9.612942612942613,10.0
PS0206034,BILAL-COMPREHENSIVE,55,226.1818,B,Dar es Salaam,Temeke MC,27,28,0.9642857142857144,1.0,38.21006098307851,Tandika,Non-Government,EM.10737,-6.864327,39.261669,175,189,12,20,364,1.08,0.8984938737414888,,,2.37639744636477,10.10989010989011,10.0
PS0206035,BRAINTRUST,11,202.0909,B,Dar es Salaam,Temeke MC,7,4,1.75,1.0,40.00837980405423,Yombo vituka,Non-Government,EM.10560,-6.8916601,39.2222311,120,102,20,20,222,0.85,3.834947900936273,,,1.8181019454015943,7.900900900900901,7.0
PS0206137,COMPLEX,56,249.1786,A,Dar es Salaam,Temeke MC,28,28,1.0,1.0,28.62965606905981,Toangoma,Non-Government,EM.15423,-6.9364331,39.2772432,234,252,30,30,486,1.0769230769230769,1.0,,,2.040820363298571,8.831275720164609,9.0
PS0206132,CORNERSTONE,12,247.8333,A,Dar es Salaam,Temeke MC,7,5,1.4,1.0,28.166420117264146,Toangoma,Non-Government,EM.15963,-6.913709,39.34021,99,89,21,21,188,0.898989898989899,0.9947145877378436,,,1.5820958845652664,8.547872340425531,9.0
PS0206098,DORIS,70,252.8571,A,Dar es Salaam,Temeke MC,37,33,1.121212121212121,1.0,26.992298599294376,Kijichi,Non-Government,EM.14775,-6.8757283,39.2928033,371,409,26,26,780,1.1024258760107817,0.9618181121602628,,,2.0912311835968453,9.366666666666667,9.0
PS0206140,DYNAMIC,20,196.9,B,Dar es Salaam,Temeke MC,12,8,1.5,1.0,40.627674911936566,Chamazi,Non-Government,EM.16716,-6.9324761,39.2368221,72,83,17,17,155,1.1527777777777777,20.3953488372093,,,2.334521277301352,9.696774193548388,9.0
PS0206143,EPIPHANY,32,225.3438,B,Dar es Salaam,Temeke MC,16,16,1.0,1.0,36.97976296100806,Mianzini,Non-Government,EM.17419,-6.9366729,39.2415739,267,279,26,26,546,1.0449438202247192,8.651162790697674,,,2.028186307013554,9.336996336996338,10.0
PS0206117,FAHARI,98,257.3469,A,Dar es Salaam,Temeke MC,47,51,0.9215686274509804,1.0,19.58626754390793,Chamazi,Non-Government,EM.14776,-6.95831,39.23509,397,424,33,33,821,1.0680100755667503,1.0,,,2.176685111984323,9.419001218026796,9.0
PS0206076,GOODSHEPHERD,27,164.8148,C,Dar es Salaam,Temeke MC,17,10,1.7,0.8518518518518519,40.12326685615064,Tandika,Non-Government,EM.13543,-6.8607051,39.25658,61,72,17,17,133,1.180327868852459,1.5921775898520083,,,2.185811404584165,9.669172932330827,9.0
PS0206073,HEKIMA,23,239.9565,B,Dar es Salaam,Temeke MC,7,16,0.4375,1.0,29.619774630292827,Mianzini,Non-Government,EM.11635,-6.9543425,39.32452,82,74,17,17,156,0.902439024390244,1.660378711575702,,,2.2396210319748087,9.442307692307692,9.0
PS0206087,HOLY CROSS,108,263.6296,A,Dar es Salaam,Temeke MC,54,54,1.0,1.0,23.647401644841853,Kijichi,Non-Government,EM.11636,-6.8805357,39.2901824,394,393,21,21,787,0.9974619289340102,0.9884236012219668,,,2.211754070057515,7.606099110546379,7.0
PS0206114,HOLY UNION,38,241.0789,A,Dar es Salaam,Temeke MC,23,15,1.5333333333333334,1.0,35.646505391225205,Mianzini,Non-Government,EM.16717,-6.9434643,39.2466197,127,142,21,21,269,1.1181102362204725,0.9900119260584376,,,2.3571763440067883,9.598513011152416,10.0
PS0206108,KAMO,32,256.0313,A,Dar es Salaam,Temeke MC,15,17,0.8823529411764706,1.0,26.864150017306404,Kijichi,Non-Government,EM.15964,-6.9032833,39.294936,227,220,30,30,447,0.9691629955947136,0.9508188866219612,,,2.0762410245046703,8.950782997762863,9.0
PS0206138,KATAVI,13,231.6154,B,Dar es Salaam,Temeke MC,7,6,1.1666666666666667,1.0,36.231708300748565,Toangoma,Non-Government,EM.17040,-6.9370874,39.3460049,96,95,13,13,191,0.9895833333333334,0.7827519379844964,,,1.5903135974833724,9.43979057591623,10.0
PS0206120,KAZAURA,24,248.5,A,Dar es Salaam,Temeke MC,6,18,0.3333333333333333,1.0,33.70851359655138,Chamazi,Non-Government,EM.16719,-6.97961092,39.20822763,150,162,21,21,312,1.08,0.9434881132369712,,,2.1333348742597984,8.987179487179487,9.0
PS0206144,KONGOWE ISLAMIC,34,225.1765,B,Dar es Salaam,Temeke MC,17,17,1.0,1.0,37.61438724780295,Toangoma,Non-Government,EM.17443,-6.93900006,39.2770243,145,146,16,29,291,1.006896551724138,1.1403202985215182,,,2.093643845525444,9.395189003436426,9.0
PS0206008,LASSANA,28,244.0357,A,Dar es Salaam,Temeke MC,10,18,0.5555555555555556,1.0,28.62965606905981,Mbagala Kuu,Non-Government,EM.17466,-6.9070912,39.2794591,96,91,23,23,187,0.9479166666666666,12.851052048726467,,,1.841095004573496,8.893048128342246,9.0
PS0206139,LILLIES,40,209.475,B,Dar es Salaam,Temeke MC,23,17,1.3529411764705883,0.975,46.387093689274174,Chamazi,Non-Government,EM.15230,-6.9488902,39.2292485,133,144,20,20,277,1.0827067669172932,1.0490196078431373,,,2.479311364624919,9.5956678700361,9.0
PS0206101,MAMAISARA,15,267.2,A,Dar es Salaam,Temeke MC,5,10,0.5,1.0,20.31109439581126,Yombo vituka,Non-Government,EM.15966,-6.8827366,39.2354683,110,109,18,18,219,0.990909090909091,1.3493023255813952,,,2.1252556304492303,8.799086757990867,8.0
PS0206107,MARY OUR HELP,49,234.4286,B,Dar es Salaam,Temeke MC,27,22,1.2272727272727273,1.0,33.19571803024486,Sandali,Non-Government,EM.14777,-6.85642,39.24843,152,158,11,11,310,1.0394736842105263,8.42396584896585,,,2.629331073459667,9.412903225806453,10.0
PS0206013,MARYDESTINY,8,231.875,B,Dar es Salaam,Temeke MC,4,4,1.0,1.0,41.64601571579207,Toangoma,Non-Government,EM.17530,-6.9425374,39.3295414,46,49,11,11,95,1.065217391304348,0.9406976744186044,,,2.2659713234684067,8.789473684210526,8.0
PS0206103,MATER DEI,38,260.0263,A,Dar es Salaam,Temeke MC,17,21,0.8095238095238095,1.0,18.33680924826351,Kijichi,Non-Government,EM.15967,-6.9029354,39.2905458,143,134,18,18,277,0.9370629370629372,0.8634689922480617,,,2.032622422024374,9.631768953068592,10.0
PS0206083,MBAGALA ISLAMIC,58,229.1034,B,Dar es Salaam,Temeke MC,29,29,1.0,1.0,27.883315519036213,Mbagala,Non-Government,EM.17931,-6.90106,39.26284,347,364,23,34,711,1.0489913544668588,0.9443315591955244,,,2.188447062051029,9.20815752461322,9.0
PS0206116,MKOMBOZI MONTESSORI,37,254.0811,A,Dar es Salaam,Temeke MC,21,16,1.3125,1.0,23.40161515094105,Chamazi,Non-Government,EM.15232,-6.931919,39.2329,210,187,22,22,397,0.8904761904761904,0.9505295988401322,,,2.097097976121093,9.219143576826196,9.0
PS0206081,MONTFORT,73,261.7671,A,Dar es Salaam,Temeke MC,37,36,1.0277777777777777,1.0,22.144740224479552,Yombo vituka,Non-Government,EM.11160,-6.8742703,39.2259702,300,318,23,23,618,1.06,1.0,,,2.420350681724418,8.851132686084142,8.0
PS0206096,MOSES,23,213.9565,B,Dar es Salaam,Temeke MC,10,13,0.7692307692307693,1.0,37.36917317749691,Yombo vituka,Non-Government,EM.13908,-6.8768621,39.2270781,71,76,16,16,147,1.0704225352112675,1.6742844991306003,,,2.322190326290752,9.149659863945578,9.0
PS0206112,MUSTAMBI,5,208.4,B,Dar es Salaam,Temeke MC,3,2,1.5,1.0,37.86832449422605,Kilakala,Non-Government,EM.16721,-1.000000692,39.4218,25,37,9,9,62,1.48,1.0,,,1.7801220596763907,8.370967741935484,8.0
PS0206097,MWANGAZA,81,258.0988,A,Dar es Salaam,Temeke MC,40,41,0.975609756097561,1.0,25.587389592782603,Mianzini,Non-Government,EM.15425,-6.940076667,39.2566651,294,321,21,31,615,1.0918367346938775,1.1184693192866937,,,2.406452427483788,9.970731707317071,10.0
PS0206104,OASIS,16,243.875,A,Dar es Salaam,Temeke MC,6,10,0.6,1.0,36.43829062178274,Makangarawe,Non-Government,EM.15969,-6.8841516,39.2461983,114,116,16,16,230,1.0175438596491229,1.0513760083022785,,,2.032440123212082,8.130434782608695,8.0
PS0206118,OCEAN VIEW,45,237.4222,B,Dar es Salaam,Temeke MC,22,23,0.9565217391304348,1.0,32.26649448989876,Toangoma,Non-Government,EM.17296,-6.9433283,39.3514033,134,138,17,17,272,1.0298507462686568,2.09838820094634,,,2.145493864593973,9.415441176470589,9.0
PS0206142,PACIFIC,13,173.6923,C,Dar es Salaam,Temeke MC,5,8,0.625,0.9230769230769232,37.495561867550585,Chamazi,Non-Government,EM.17374,-6.9363201,39.2160111,58,47,13,13,105,0.8103448275862069,2.108139534883721,,,2.115829552179842,9.457142857142856,9.0
PS0206136,RAINBOW,43,255.8372,A,Dar es Salaam,Temeke MC,20,23,0.8695652173913043,1.0,27.44111523426412,Toangoma,Non-Government,EM.15970,-6.9372374,39.313377,223,221,28,28,444,0.9910313901345292,1.979235880398671,,,2.1702399315004777,9.24099099099099,9.0
PS0206016,RUWIJA,18,187.6111,B,Dar es Salaam,Temeke MC,12,6,2.0,0.9444444444444444,41.20076794576756,Chamazi,Non-Government,EM.17532,-6.9291743,39.2380534,81,89,19,19,170,1.0987654320987654,1.2035990683796811,,,2.1026922929646013,8.75294117647059,8.0
PS0206102,SACRED HEART,72,267.7639,A,Dar es Salaam,Temeke MC,31,41,0.7560975609756098,1.0,16.51402760197793,Buza,Non-Government,EM.15233,-6.8894231,39.2252322,256,288,34,34,544,1.125,1.0,,,2.246476961160346,9.360294117647058,9.0
PS0206133,SALAAM,52,266.1923,A,Dar es Salaam,Temeke MC,27,25,1.08,1.0,8.20577593471991,Chamazi,Non-Government,EM.14778,-6.9588009,39.2243981,281,285,27,27,566,1.0142348754448398,1.0,,,1.933210994296104,8.706713780918728,8.0
PS0206071,SHALOM,41,224.1463,B,Dar es Salaam,Temeke MC,20,21,0.9523809523809524,1.0,41.336570686804095,Chamazi,Non-Government,EM.13057,-6.9508142,39.2160421,124,127,17,17,251,1.0241935483870968,0.7765625562113617,,,2.42910950901306,9.378486055776891,9.0
PS0206050,ST MARY'S-INTER MBAGALA,63,257.1587,A,Dar es Salaam,Temeke MC,29,34,0.8529411764705882,1.0,23.462434393395736,Kibondemaji,Non-Government,EM.12429,-6.9270356,39.2720266,308,305,24,24,613,0.9902597402597404,0.9454911092727072,,,2.264034287364274,9.36541598694943,9.0
PS0206106,ST. THERESE,54,223.7593,B,Dar es Salaam,Temeke MC,31,23,1.3478260869565215,0.9814814814814816,41.82580028456651,Chang'ombe,Non-Government,EM.15426,-6.8523961,39.264002,215,250,29,29,465,1.162790697674419,1.0445153683525776,,,2.2886651582809354,9.335483870967742,9.0
PS0206070,STABELA,18,197.8333,B,Dar es Salaam,Temeke MC,11,7,1.5714285714285714,0.8888888888888888,49.94171950606248,Buza,Non-Government,EM.13058,-6.896335,39.2405317,57,45,9,9,102,0.7894736842105263,2.883720930232557,,,2.2438989862547705,9.696078431372548,10.0
PS0206019,TANEEM,6,240.1667,B,Dar es Salaam,Temeke MC,3,3,1.0,1.0,28.166420117264146,Toangoma,Non-Government,EM.17574,-6.9261469,39.3044677,40,25,7,7,65,0.625,1.0147991543340382,,,2.4699855065094742,9.261538461538462,9.0
PS0206124,TEMEKE ADVENTIST,40,240.25,B,Dar es Salaam,Temeke MC,11,29,0.3793103448275862,1.0,29.875,Toangoma,Non-Government,EM.13909,-6.9199441,39.3307541,156,139,20,20,295,0.8910256410256411,1.0,,,2.000792718509798,9.447457627118643,9.0
PS0206135,UNIQUE,57,246.1053,A,Dar es Salaam,Temeke MC,27,30,0.9,1.0,30.647295685604533,Chamazi,Non-Government,EM.13544,-6.9330501,39.2035231,240,247,32,32,487,1.0291666666666666,1.0028559771521828,,,2.138912963469468,9.0,8.0
PS0206025,UNITY,12,186.8333,B,Dar es Salaam,Temeke MC,5,7,0.7142857142857143,0.8333333333333334,57.165770765574585,Chamazi,Non-Government,EM.17755,-6.9811881,39.2189771,43,33,8,8,76,0.7674418604651163,3.1494462901439646,,,2.081236248322049,9.276315789473683,9.0
PS0206141,UPEO ISLAMIC,36,206.9722,B,Dar es Salaam,Temeke MC,19,17,1.1176470588235294,1.0,29.53466507296506,Chamazi,Non-Government,EM.17039,-6.9728321,39.2098901,226,218,25,25,444,0.9646017699115044,1.0,,,2.2390457400030543,9.416666666666666,9.0
PS0206069,YEMENI,90,263.9333,A,Dar es Salaam,Temeke MC,46,44,1.0454545454545454,1.0,17.925,Miburani,Non-Government,EM.11652,-6.8477885,39.2711144,486,504,19,19,990,1.037037037037037,0.946833902531577,,,1.90768480097404,9.252525252525253,9.0
PS0204066,ALI HASSAN MWINYI ISLAMIC,12,210.75,B,Dar es Salaam,Ubungo MC,4,8,0.5,1.0,29.53466507296506,Mburahati,Non-Government,EM.13060,-6.8168741,39.2473321,37,33,9,9,70,0.8918918918918919,9.906976744186046,,,2.4244081962493063,9.528571428571428,10.0
PS0204065,ALLIANCE,7,220.5714,B,Dar es Salaam,Ubungo MC,6,1,6.0,1.0,20.90814459018499,Msigani,Non-Government,EM.11161,-6.7878981,39.1076441,30,34,6,8,64,1.1333333333333333,1.7300387596899225,,,2.045323839731743,8.859375,9.0
PS0204067,ANAZAK,177,262.4972,A,Dar es Salaam,Ubungo MC,94,83,1.1325301204819278,1.0,29.16951436830712,Saranga,Non-Government,EM.14598,-6.7817223,39.1344856,681,641,17,17,1322,0.9412628487518356,0.944672110034778,,,1.9957660639225072,9.347201210287444,9.0
PS0204068,ANINY NNDUMI,52,222.4231,B,Dar es Salaam,Ubungo MC,26,26,1.0,1.0,39.510366250329895,Saranga,Non-Government,EM.13910,-6.779335,39.17129,165,165,19,19,330,1.0,3.1155038759689924,,,2.3688152277254053,10.148484848484848,9.5
PS0204143,ARISE,11,241.7273,A,Dar es Salaam,Ubungo MC,7,4,1.75,1.0,39.21985866942392,Goba,Non-Government,EM.17606,-6.7113521,39.1576231,106,84,16,16,190,0.7924528301886793,14.011627906976743,,,2.045635851949502,9.289473684210526,9.0
PS0204069,ATLAS,147,233.9796,B,Dar es Salaam,Ubungo MC,76,71,1.0704225352112675,1.0,39.99505803267302,Ubungo,Non-Government,EM.14779,-6.8023554,39.2084987,565,561,21,21,1126,0.9929203539823008,1.0,,,1.9453270979590596,9.088809946714033,9.0
